≤4Ìccc6VFFÊvv&∆ÊcñFÊÜfñ∆vçYÜñFÊ∆cSF÷
$GPGSA,A,3,26,18,11,32,14,22,31,16,03,01,23,,1.8,0.9,1.6*3A
$GPRMC,180940.000,A,3544.7172,N,11914.8691,W,0.06,130.05,250119,,,A*78
$GPGGA,180941.000,3544.7171,N,11914.8691,W,1,11,0.9,88.7,M,-29.3,M,,0000*5C
$GPGLL,3544.7171,N,11914.8691,W,180941.000,A,A*42
$GPGSA,A,3,26,18,11,32,14,22,31,16,03,01,23,,1.8,0.9,1.6*3A
$GPRMC,180941.000,A,3544.7171,N,11914.8691,W,0.11,136.07,250119,,,A*78
$GPGGA,180942.000,3544.7171,N,11914.8690,W,1,11,0.9,88.8,M,-29.3,M,,0000*51
$GPGLL,3544.7171,N,11914.8690,W,180942.000,A,A*40
$GPGSA,A,3,26,18,11,32,14,22,31,16,03,01,23,,1.8,0.9,1.6*3A
$GPRMC,180942.000,A,3544.7171,N,11914.8690,W,0.15,133.95,250119,,,A*70
$GPGGA,180943.000,3544.7171,N,11914.8690,W,1,11,0.9,88.8,M,-29.3,M,,0000*50
$GPGLL,3544.7171,N,11914.8690,W,180943.000,A,A*41
$GPGSA,A,3,26,18,11,32,14,22,31,16,03,01,23,,1.8,0.9,1.6*3A
$GPRMC,180943.000,A,3544.7171,N,11914.8690,W,0.02,338.82,250119,,,A*78
$GPGGA,180944.000,3544.7172,N,11914.8692,W,1,11,0.9,88.6,M,-29.3,M,,0000*58
$GPGLL,3544.7172,N,11914.8692,W,180944.000,A,A*47
$GPGSA,A,3,26,18,11,32,14,22,31,16,03,01,23,,1.8,0.9,1.6*3A
$GPGSV,3,1,12,22,77,318,41,31,56,052,39,03,54,319,34,01,45,237,33*73
$GPGSV,3,2,12,14,31,060,28,18,29,202,31,23,28,279,33,26,27,129,23*7D
$GPGSV,3,3,12,11,18,225,36,32,15,071,34,16,11,154,38,25,03,034,32*79
$GPRMC,180944.000,A,3544.7172,N,11914.8692,W,0.04,320.39,250119,,,A*71
$GPGGA,180945.000,3544.7172,N,11914.8692,W,1,11,0.9,88.6,M,-29.3,M,,0000*59
$GPGLL,3544.7172,N,11914.8692,W,180945.000,A,A*46
$GPGSA,A,3,26,18,11,32,14,22,31,16,03,01,23,,1.8,0.9,1.6*3A
$GPRMC,180945.000,A,3544.7172,N,11914.8692,W,0.03,77.31,250119,,,A*4E
$GPGGA,180946.000,3544.7172,N,11914.8692,W,1,11,0.9,88.6,M,-29.3,M,,0000*5A
$GPGLL,3544.7172,N,11914.8692,W,180946.000,A,A*45
$GPGSA,A,3,26,18,11,32,14,22,31,16,03,01,23,,1.8,0.9,1.6*3A
$GPRMC,180946.000,A,3544.7172,N,11914.8692,W,0.04,335.30,250119,,,A*7E
$GPGGA,180947.000,3544.7173,N,11914.8693,W,1,11,0.9,88.5,M,-29.3,M,,0000*58
$GPGLL,3544.7173,N,11914.8693,W,180947.000,A,A*44
$GPGSA,A,3,26,18,11,32,14,22,31,16,03,01,23,,1.8,0.9,1.6*3A
$GPRMC,180947.000,A,3544.7173,N,11914.8693,W,0.17,328.60,250119,,,A*74
$GPGGA,180948.000,3544.7173,N,11914.8693,W,1,11,0.9,88.5,M,-29.3,M,,0000*57
$GPGLL,3544.7173,N,11914.8693,W,180948.000,A,A*4B
$GPGSA,A,3,26,18,11,32,14,22,31,16,03,01,23,,1.8,0.9,1.6*3A
$GPRMC,180948.000,A,3544.7173,N,11914.8693,W,0.10,338.81,250119,,,A*72
$GPGGA,180949.000,3544.7174,N,11914.8694,W,1,11,0.9,88.4,M,-29.3,M,,0000*57
$GPGLL,3544.7174,N,11914.8694,W,180949.000,A,A*4A
$GPGSA,A,3,26,18,11,32,14,22,31,16,03,01,23,,1.8,0.9,1.6*3A
$GPGSV,3,1,12,22,77,318,41,31,56,052,39,03,54,319,34,01,45,237,33*73
$GPGSV,3,2,12,14,31,060,28,18,29,202,28,23,28,279,34,26,27,129,23*72
$GPGSV,3,3,12,11,18,225,36,32,15,071,33,16,11,154,38,25,03,034,32*7E
$GPRMC,180949.000,A,3544.7174,N,11914.8694,W,0.17,324.72,250119,,,A*75
$GPGGA,180950.000,3544.7173,N,11914.8693,W,1,11,0.9,88.5,M,-29.3,M,,0000*5E
$GPGLL,3544.7173,N,11914.8693,W,180950.000,A,A*42
$GPGSA,A,3,26,18,11,32,14,22,31,16,03,01,23,,1.8,0.9,1.6*3A
$GPRMC,180950.000,A,3544.7173,N,11914.8693,W,0.09,23.50,250119,,,A*46
$GPGGA,180951.000,3544.7172,N,11914.8693,W,1,11,0.9,88.7,M,-29.3,M,,0000*5C
$GPGLL,3544.7172,N,11914.8693,W,180951.000,A,A*42
$GPGSA,A,3,26,18,11,32,14,22,31,16,03,01,23,,1.8,0.9,1.6*3A
$GPRMC,180951.000,A,3544.7172,N,11914.8693,W,0.07,81.09,250119,,,A*4C
$GPGGA,180952.000,3544.7172,N,11914.8692,W,1,11,0.9,88.7,M,-29.3,M,,0000*5E
$GPGLL,3544.7172,N,11914.8692,W,180952.000,A,A*40
$GPGSA,A,3,26,18,11,32,14,22,31,16,03,01,23,,1.8,0.9,1.6*3A
$GPRMC,180952.000,A,3544.7172,N,11914.8692,W,0.05,347.85,250119,,,A*71
$GPGGA,180953.000,3544.7172,N,11914.8691,W,1,11,0.9,88.5,M,-29.3,M,,0000*5E
$GPGLL,3544.7172,N,11914.8691,W,180953.000,A,A*42
$GPGSA,A,3,26,18,11,32,14,22,31,16,03,01,23,,1.8,0.9,1.6*3A
$GPRMC,180953.000,A,3544.7172,N,11914.8691,W,0.06,333.12,250119,,,A*7D
$GPGGA,180954.000,3544.7172,N,11914.8690,W,1,11,0.9,88.5,M,-29.3,M,,0000*58
$GPGLL,3544.7172,N,11914.8690,W,180954.000,A,A*44
$GPGSA,A,3,26,18,11,32,14,22,31,16,03,01,23,,1.8,0.9,1.6*3A
$GPGSV,3,1,12,22,77,318,41,31,56,052,34,03,54,319,34,01,45,237,33*7E
$GPGSV,3,2,12,14,31,060,24,18,29,202,28,23,28,279,34,26,27,129,28*75
$GPGSV,3,3,12,11,18,225,37,32,15,071,29,16,11,154,39,25,03,034,31*76
$GPRMC,180954.000,A,3544.7172,N,11914.8690,W,0.04,343.50,250119,,,A*78
$GPGGA,180955.000,3544.7170,N,11914.8690,W,1,11,0.9,88.8,M,-29.3,M,,0000*56
$GPGLL,3544.7170,N,11914.8690,W,180955.000,A,A*47
$GPGSA,A,3,26,18,11,32,14,22,31,16,03,01,23,,1.8,0.9,1.6*3A
$GPRMC,180955.000,A,3544.7170,N,11914.8690,W,0.07,13.64,250119,,,A*49
$GPGGA,180956.000,3544.7168,N,11914.8691,W,1,11,0.9,89.2,M,-29.3,M,,0000*56
$GPGLL,3544.7168,N,11914.8691,W,180956.000,A,A*4C
$GPGSA,A,3,26,18,11,32,14,22,31,16,03,01,23,,1.8,0.9,1.6*3A
$GPRMC,180956.000,A,3544.7168,N,11914.8691,W,0.11,262.29,250119,,,A*78
$GPGGA,180957.000,3544.7166,N,11914.8692,W,1,11,0.9,89.6,M,-29.3,M,,0000*5E
$GPGLL,3544.7166,N,11914.8692,W,180957.000,A,A*40
$GPGSA,A,3,26,18,11,32,14,22,31,16,03,01,23,,1.8,0.9,1.6*3A
$GPRMC,180957.000,A,3544.7166,N,11914.8692,W,0.05,199.52,250119,,,A*7A
$GPGGA,180958.000,3544.7165,N,11914.8693,W,1,11,0.9,90.0,M,-29.3,M,,0000*5D
$GPGLL,3544.7165,N,11914.8693,W,180958.000,A,A*4D
$GPGSA,A,3,26,18,11,32,14,22,31,16,03,01,23,,1.8,0.9,1.6*3A
$GPRMC,180958.000,A,3544.7165,N,11914.8693,W,0.04,194.24,250119,,,A*7A
$GPGGA,180959.000,3544.7163,N,11914.8695,W,1,11,0.9,90.4,M,-29.3,M,,0000*58
$GPGLL,3544.7163,N,11914.8695,W,180959.000,A,A*4C
$GPGSA,A,3,26,18,11,32,14,22,31,16,03,01,23,,1.8,0.9,1.6*3A
$GPGSV,3,1,12,22,77,318,41,31,56,052,34,03,54,319,34,01,45,237,33*7E
$GPGSV,3,2,12,14,31,060,32,18,29,202,28,23,28,279,34,26,27,129,14*7D
$GPGSV,3,3,12,11,18,225,38,32,15,071,30,16,11,154,38,25,03,034,30*71
$GPRMC,180959.000,A,3544.7163,N,11914.8695,W,0.04,188.55,250119,,,A*70
$GPGGA,181000.000,3544.7161,N,11914.8696,W,1,11,0.9,90.7,M,-29.3,M,,0000*5E
$GPGLL,3544.7161,N,11914.8696,W,181000.000,A,A*49
$GPGSA,A,3,26,18,11,32,14,22,31,16,03,01,23,,1.8,0.9,1.6*3A
$GPRMC,181000.000,A,3544.7161,N,11914.8696,W,0.04,192.19,250119,,,A*76
$GPGGA,181001.000,3544.7160,N,11914.8697,W,1,11,0.9,91.0,M,-29.3,M,,0000*59
$GPGLL,3544.7160,N,11914.8697,W,181001.000,A,A*48
$GPGSA,A,3,26,18,11,32,14,22,31,16,03,01,23,,1.8,0.9,1.6*3A
$GPRMC,181001.000,A,3544.7160,N,11914.8697,W,0.03,263.05,250119,,,A*70
$GPGGA,181002.000,3544.7159,N,11914.8699,W,1,10,1.0,91.3,M,-29.3,M,,0000*54
$GPGLL,3544.7159,N,11914.8699,W,181002.000,A,A*4F
$GPGSA,A,3,18,11,32,14,22,31,16,03,01,23,,,1.9,1.0,1.6*37
$GPRMC,181002.000,A,3544.7159,N,11914.8699,W,0.03,200.03,250119,,,A*74
$GPGGA,181003.000,3544.7158,N,11914.8700,W,1,10,1.0,91.6,M,-29.3,M,,0000*50
$GPGLL,3544.7158,N,11914.8700,W,181003.000,A,A*4E
$GPGSA,A,3,18,11,32,14,22,31,16,03,01,23,,,1.9,1.0,1.6*37
$GPRMC,181003.000,A,3544.7158,N,11914.8700,W,0.04,218.56,250119,,,A*7B
$GPGGA,181004.000,3544.7157,N,11914.8701,W,1,11,0.9,91.8,M,-29.3,M,,0000*5E
$GPGLL,3544.7157,N,11914.8701,W,181004.000,A,A*47
$GPGSA,A,3,26,18,11,32,14,22,31,16,03,01,23,,1.8,0.9,1.6*3A
$GPGSV,3,1,12,22,77,318,41,31,56,052,34,03,54,319,34,01,45,237,33*7E
$GPGSV,3,2,12,14,31,060,31,18,29,202,29,23,28,279,34,26,27,129,24*7C
$GPGSV,3,3,12,11,18,225,38,32,15,071,30,16,11,154,38,25,03,034,23*73
$GPRMC,181004.000,A,3544.7157,N,11914.8701,W,0.03,200.29,250119,,,A*74
$GPGGA,181005.000,3544.7156,N,11914.8703,W,1,11,0.9,92.0,M,-29.3,M,,0000*57
$GPGLL,3544.7156,N,11914.8703,W,181005.000,A,A*45
$GPGSA,A,3,26,18,11,32,14,22,31,16,03,01,23,,1.8,0.9,1.6*3A
$GPRMC,181005.000,A,3544.7156,N,11914.8703,W,0.12,297.88,250119,,,A*73
$GPGGA,181006.000,3544.7155,N,11914.8704,W,1,11,0.9,92.4,M,-29.3,M,,0000*54
$GPGLL,3544.7155,N,11914.8704,W,181006.000,A,A*42
$GPGSA,A,3,26,18,11,32,14,22,31,16,03,01,23,,1.8,0.9,1.6*3A
$GPRMC,181006.000,A,3544.7155,N,11914.8704,W,0.39,274.06,250119,,,A*76
$GPGGA,181007.000,3544.7153,N,11914.8707,W,1,11,0.9,92.8,M,-29.3,M,,0000*5C
$GPGLL,3544.7153,N,11914.8707,W,181007.000,A,A*46
$GPGSA,A,3,26,18,11,32,14,22,31,16,03,01,23,,1.8,0.9,1.6*3A
$GPRMC,181007.000,A,3544.7153,N,11914.8707,W,0.76,264.14,250119,,,A*7B
$GPGGA,181008.000,3544.7152,N,11914.8712,W,1,11,0.9,93.0,M,-29.3,M,,0000*5F
$GPGLL,3544.7152,N,11914.8712,W,181008.000,A,A*4C
$GPGSA,A,3,26,18,11,32,14,22,31,16,03,01,23,,1.8,0.9,1.6*3A
$GPRMC,181008.000,A,3544.7152,N,11914.8712,W,1.40,265.22,250119,,,A*71
$GPGGA,181009.000,3544.7150,N,11914.8718,W,1,11,0.9,93.2,M,-29.3,M,,0000*54
$GPGLL,3544.7150,N,11914.8718,W,181009.000,A,A*45
$GPGSA,A,3,26,18,11,32,14,22,31,16,03,01,23,,1.8,0.9,1.6*3A
$GPGSV,3,1,12,22,77,318,41,31,56,052,40,03,54,319,32,01,45,237,31*79
$GPGSV,3,2,12,14,31,060,31,18,29,202,30,23,28,279,39,26,27,129,36*7A
$GPGSV,3,3,12,11,18,225,38,32,15,071,30,16,11,154,38,25,03,034,26*76
$GPRMC,181009.000,A,3544.7150,N,11914.8718,W,1.77,252.15,250119,,,A*7C
$GPGGA,181010.000,3544.7148,N,11914.8723,W,1,11,0.9,93.0,M,-29.3,M,,0000*5F
$GPGLL,3544.7148,N,11914.8723,W,181010.000,A,A*4C
$GPGSA,A,3,26,18,11,32,14,22,31,16,03,01,23,,1.8,0.9,1.6*3A
$GPRMC,181010.000,A,3544.7148,N,11914.8723,W,1.85,240.19,250119,,,A*77
$GPGGA,181011.000,3544.7145,N,11914.8726,W,1,11,0.9,92.7,M,-29.3,M,,0000*50
$GPGLL,3544.7145,N,11914.8726,W,181011.000,A,A*45
$GPGSA,A,3,26,18,11,32,14,22,31,16,03,01,23,,1.8,0.9,1.6*3A
$GPRMC,181011.000,A,3544.7145,N,11914.8726,W,1.78,227.16,250119,,,A*72
$GPGGA,181012.000,3544.7142,N,11914.8728,W,1,11,0.9,92.4,M,-29.3,M,,0000*59
$GPGLL,3544.7142,N,11914.8728,W,181012.000,A,A*4F
$GPGSA,A,3,26,18,11,32,14,22,31,16,03,01,23,,1.8,0.9,1.6*3A
$GPRMC,181012.000,A,3544.7142,N,11914.8728,W,1.56,213.75,250119,,,A*76
$GPGGA,181013.000,3544.7139,N,11914.8729,W,1,11,0.9,92.3,M,-29.3,M,,0000*52
$GPGLL,3544.7139,N,11914.8729,W,181013.000,A,A*43
$GPGSA,A,3,26,18,11,32,14,22,31,16,03,01,23,,1.8,0.9,1.6*3A
$GPRMC,181013.000,A,3544.7139,N,11914.8729,W,0.68,199.38,250119,,,A*7E
$GPGGA,181014.000,3544.7139,N,11914.8728,W,1,11,0.9,92.3,M,-29.3,M,,0000*54
$GPGLL,3544.7139,N,11914.8728,W,181014.000,A,A*45
$GPGSA,A,3,26,18,11,32,14,22,31,16,03,01,23,,1.8,0.9,1.6*3A
$GPGSV,3,1,12,22,77,318,32,31,56,052,41,03,54,319,33,01,45,237,28*75
$GPGSV,3,2,12,14,31,060,37,18,29,202,37,23,28,279,40,26,27,129,38*7B
$GPGSV,3,3,12,11,18,225,38,32,15,071,20,16,11,154,33,25,03,034,30*7B
$GPRMC,181014.000,A,3544.7139,N,11914.8728,W,0.90,29.84,250119,,,A*42
$GPGGA,181015.000,3544.7143,N,11914.8725,W,1,11,0.9,92.6,M,-29.3,M,,0000*50
$GPGLL,3544.7143,N,11914.8725,W,181015.000,A,A*44
$GPGSA,A,3,26,18,11,32,14,22,31,16,03,01,23,,1.8,0.9,1.6*3A
$GPRMC,181015.000,A,3544.7143,N,11914.8725,W,2.79,19.92,250119,,,A*42
$GPGGA,181016.000,3544.7154,N,11914.8723,W,1,11,0.9,92.6,M,-29.3,M,,0000*53
$GPGLL,3544.7154,N,11914.8723,W,181016.000,A,A*47
$GPGSA,A,3,26,18,11,32,14,22,31,16,03,01,23,,1.8,0.9,1.6*3A
$GPRMC,181016.000,A,3544.7154,N,11914.8723,W,4.57,7.16,250119,,,A*78
$GPGGA,181017.000,3544.7169,N,11914.8721,W,1,11,0.9,92.5,M,-29.3,M,,0000*5D
$GPGLL,3544.7169,N,11914.8721,W,181017.000,A,A*4A
$GPGSA,A,3,26,18,11,32,14,22,31,16,03,01,23,,1.8,0.9,1.6*3A
$GPRMC,181017.000,A,3544.7169,N,11914.8721,W,6.43,359.46,250119,,,A*7F
$GPGGA,181018.000,3544.7191,N,11914.8721,W,1,10,1.0,92.3,M,-29.3,M,,0000*5A
$GPGLL,3544.7191,N,11914.8721,W,181018.000,A,A*42
$GPGSA,A,3,26,18,11,32,14,22,31,16,01,23,,,1.9,1.0,1.6*30
$GPRMC,181018.000,A,3544.7191,N,11914.8721,W,8.28,357.57,250119,,,A*7A
$GPGGA,181019.000,3544.7216,N,11914.8723,W,1,10,1.0,92.2,M,-29.3,M,,0000*54
$GPGLL,3544.7216,N,11914.8723,W,181019.000,A,A*4D
$GPGSA,A,3,26,18,11,32,14,22,31,16,01,23,,,1.9,1.0,1.6*30
$GPGSV,3,1,12,22,77,318,39,31,56,052,38,03,54,319,,01,45,237,30*79
$GPGSV,3,2,12,14,31,060,34,18,29,202,36,23,28,279,41,26,27,129,35*75
$GPGSV,3,3,12,11,18,225,30,32,15,071,38,16,11,154,39,25,03,034,24*75
$GPRMC,181019.000,A,3544.7216,N,11914.8723,W,9.69,356.97,250119,,,A*7C
$GPGGA,181020.000,3544.7245,N,11914.8724,W,1,11,0.9,92.1,M,-29.3,M,,0000*55
$GPGLL,3544.7245,N,11914.8724,W,181020.000,A,A*46
$GPGSA,A,3,26,18,11,32,14,22,31,16,03,01,23,,1.8,0.9,1.6*3A
$GPRMC,181020.000,A,3544.7245,N,11914.8724,W,10.08,356.83,250119,,,A*4D
$GPGGA,181021.000,3544.7273,N,11914.8726,W,1,11,0.9,92.0,M,-29.3,M,,0000*52
$GPGLL,3544.7273,N,11914.8726,W,181021.000,A,A*40
$GPGSA,A,3,26,18,11,32,14,22,31,16,03,01,23,,1.8,0.9,1.6*3A
$GPRMC,181021.000,A,3544.7273,N,11914.8726,W,10.43,357.86,250119,,,A*40
$GPGGA,181022.000,3544.7301,N,11914.8726,W,1,11,0.9,92.0,M,-29.3,M,,0000*55
$GPGLL,3544.7301,N,11914.8726,W,181022.000,A,A*47
$GPGSA,A,3,26,18,11,32,14,22,31,16,03,01,23,,1.8,0.9,1.6*3A
$GPRMC,181022.000,A,3544.7301,N,11914.8726,W,9.89,359.23,250119,,,A*78
$GPGGA,181023.000,3544.7327,N,11914.8726,W,1,11,0.9,92.0,M,-29.3,M,,0000*50
$GPGLL,3544.7327,N,11914.8726,W,181023.000,A,A*42
$GPGSA,A,3,26,18,11,32,14,22,31,16,03,01,23,,1.8,0.9,1.6*3A
$GPRMC,181023.000,A,3544.7327,N,11914.8726,W,8.87,359.85,250119,,,A*7E
$GPGGA,181024.000,3544.7350,N,11914.8725,W,1,11,0.9,91.8,M,-29.3,M,,0000*5F
$GPGLL,3544.7350,N,11914.8725,W,181024.000,A,A*46
$GPGSA,A,3,26,18,11,32,14,22,31,16,03,01,23,,1.8,0.9,1.6*3A
$GPGSV,3,1,12,22,77,318,39,31,56,052,31,03,54,319,25,01,45,237,31*76
$GPGSV,3,2,12,14,31,060,34,18,29,202,38,23,28,279,42,26,27,129,29*75
$GPGSV,3,3,12,11,18,225,31,32,15,071,39,16,11,154,38,25,03,034,20*70
$GPRMC,181024.000,A,3544.7350,N,11914.8725,W,7.15,1.10,250119,,,A*7C
$GPGGA,181025.000,3544.7366,N,11914.8724,W,1,11,0.9,91.8,M,-29.3,M,,0000*5A
$GPGLL,3544.7366,N,11914.8724,W,181025.000,A,A*43
$GPGSA,A,3,26,18,11,32,14,22,31,16,03,01,23,,1.8,0.9,1.6*3A
$GPRMC,181025.000,A,3544.7366,N,11914.8724,W,4.17,2.62,250119,,,A*7E
$GPGGA,181026.000,3544.7373,N,11914.8724,W,1,10,1.0,91.7,M,-29.3,M,,0000*5B
$GPGLL,3544.7373,N,11914.8724,W,181026.000,A,A*44
$GPGSA,A,3,26,18,11,32,14,22,31,16,01,23,,,1.9,1.0,1.6*30
$GPRMC,181026.000,A,3544.7373,N,11914.8724,W,0.89,4.56,250119,,,A*7B
$GPGGA,181027.000,3544.7375,N,11914.8724,W,1,10,1.0,91.7,M,-29.3,M,,0000*5C
$GPGLL,3544.7375,N,11914.8724,W,181027.000,A,A*43
$GPGSA,A,3,26,18,11,32,14,22,31,16,01,23,,,1.9,1.0,1.6*30
$GPRMC,181027.000,A,3544.7375,N,11914.8724,W,0.05,65.12,250119,,,A*4F
$GPGGA,181028.000,3544.7375,N,11914.8723,W,1,11,0.9,91.7,M,-29.3,M,,0000*5D
$GPGLL,3544.7375,N,11914.8723,W,181028.000,A,A*4B
$GPGSA,A,3,26,18,11,32,14,22,31,16,03,01,23,,1.8,0.9,1.6*3A
$GPRMC,181028.000,A,3544.7375,N,11914.8723,W,0.06,62.20,250119,,,A*42
$GPGGA,181029.000,3544.7376,N,11914.8723,W,1,11,0.9,91.7,M,-29.3,M,,0000*5F
$GPGLL,3544.7376,N,11914.8723,W,181029.000,A,A*49
$GPGSA,A,3,26,18,11,32,14,22,31,16,03,01,23,,1.8,0.9,1.6*3A
$GPGSV,3,1,12,22,77,318,39,31,56,052,34,03,54,319,26,01,45,237,30*71
$GPGSV,3,2,12,14,31,060,34,18,29,202,33,23,28,279,44,26,27,129,34*74
$GPGSV,3,3,12,11,18,225,32,32,15,071,35,16,11,154,32,25,03,034,22*77
$GPRMC,181029.000,A,3544.7376,N,11914.8723,W,0.44,7.57,250119,,,A*75
$GPGGA,181030.000,3544.7379,N,11914.8723,W,1,11,0.9,91.6,M,-29.3,M,,0000*59
$GPGLL,3544.7379,N,11914.8723,W,181030.000,A,A*4E
$GPGSA,A,3,26,18,11,32,14,22,31,16,03,01,23,,1.8,0.9,1.6*3A
$GPRMC,181030.000,A,3544.7379,N,11914.8723,W,1.22,4.97,250119,,,A*7C
$GPGGA,181031.000,3544.7384,N,11914.8722,W,1,11,0.9,91.5,M,-29.3,M,,0000*58
$GPGLL,3544.7384,N,11914.8722,W,181031.000,A,A*4C
$GPGSA,A,3,26,18,11,32,14,22,31,16,03,01,23,,1.8,0.9,1.6*3A
$GPRMC,181031.000,A,3544.7384,N,11914.8722,W,2.04,5.73,250119,,,A*72
$GPGGA,181032.000,3544.7392,N,11914.8721,W,1,11,0.9,91.7,M,-29.3,M,,0000*5D
$GPGLL,3544.7392,N,11914.8721,W,181032.000,A,A*4B
$GPGSA,A,3,26,18,11,32,14,22,31,16,03,01,23,,1.8,0.9,1.6*3A
$GPRMC,181032.000,A,3544.7392,N,11914.8721,W,3.42,13.17,250119,,,A*43
$GPGGA,181033.000,3544.7401,N,11914.8714,W,1,11,0.9,91.9,M,-29.3,M,,0000*59
$GPGLL,3544.7401,N,11914.8714,W,181033.000,A,A*41
$GPGSA,A,3,26,18,11,32,14,22,31,16,03,01,23,,1.8,0.9,1.6*3A
$GPRMC,181033.000,A,3544.7401,N,11914.8714,W,4.75,34.83,250119,,,A*42
$GPGGA,181034.000,3544.7410,N,11914.8700,W,1,11,0.9,92.1,M,-29.3,M,,0000*50
$GPGLL,3544.7410,N,11914.8700,W,181034.000,A,A*43
$GPGSA,A,3,26,18,11,32,14,22,31,16,03,01,23,,1.8,0.9,1.6*3A
$GPGSV,3,1,12,22,77,318,33,31,56,052,40,03,54,319,38,01,45,237,32*75
$GPGSV,3,2,12,14,31,060,34,18,29,202,34,23,28,279,42,26,27,129,34*75
$GPGSV,3,3,12,11,18,225,36,32,15,071,30,16,11,154,33,25,03,034,21*74
$GPRMC,181034.000,A,3544.7410,N,11914.8700,W,6.01,62.23,250119,,,A*48
$GPGGA,181035.000,3544.7416,N,11914.8677,W,1,11,0.9,92.2,M,-29.3,M,,0000*55
$GPGLL,3544.7416,N,11914.8677,W,181035.000,A,A*45
$GPGSA,A,3,26,18,11,32,14,22,31,16,03,01,23,,1.8,0.9,1.6*3A
$GPRMC,181035.000,A,3544.7416,N,11914.8677,W,7.72,80.50,250119,,,A*43
$GPGGA,181036.000,3544.7418,N,11914.8648,W,1,11,0.9,92.5,M,-29.3,M,,0000*53
$GPGLL,3544.7418,N,11914.8648,W,181036.000,A,A*44
$GPGSA,A,3,26,18,11,32,14,22,31,16,03,01,23,,1.8,0.9,1.6*3A
$GPRMC,181036.000,A,3544.7418,N,11914.8648,W,8.98,87.47,250119,,,A*48
$GPGGA,181037.000,3544.7419,N,11914.8619,W,1,11,0.9,92.3,M,-29.3,M,,0000*51
$GPGLL,3544.7419,N,11914.8619,W,181037.000,A,A*40
$GPGSA,A,3,26,18,11,32,14,22,31,16,03,01,23,,1.8,0.9,1.6*3A
$GPRMC,181037.000,A,3544.7419,N,11914.8619,W,7.98,90.23,250119,,,A*47
$GPGGA,181038.000,3544.7420,N,11914.8593,W,1,11,0.9,92.1,M,-29.3,M,,0000*57
$GPGLL,3544.7420,N,11914.8593,W,181038.000,A,A*44
$GPGSA,A,3,26,18,11,32,14,22,31,16,03,01,23,,1.8,0.9,1.6*3A
$GPRMC,181038.000,A,3544.7420,N,11914.8593,W,6.94,91.36,250119,,,A*4B
$GPGGA,181039.000,3544.7421,N,11914.8569,W,1,11,0.9,91.9,M,-29.3,M,,0000*59
$GPGLL,3544.7421,N,11914.8569,W,181039.000,A,A*41
$GPGSA,A,3,26,18,11,32,14,22,31,16,03,01,23,,1.8,0.9,1.6*3A
$GPGSV,3,1,12,22,77,318,40,31,56,052,33,03,54,319,26,01,45,237,32*7A
$GPGSV,3,2,12,14,31,060,25,18,29,202,34,23,28,279,33,26,27,129,25*73
$GPGSV,3,3,12,11,18,225,37,32,15,071,38,16,11,154,35,25,03,034,22*78
$GPRMC,181039.000,A,3544.7421,N,11914.8569,W,6.42,89.64,250119,,,A*4B
$GPGGA,181040.000,3544.7422,N,11914.8548,W,1,11,0.9,91.9,M,-29.3,M,,0000*57
$GPGLL,3544.7422,N,11914.8548,W,181040.000,A,A*4F
$GPGSA,A,3,26,18,11,32,14,22,31,16,03,01,23,,1.8,0.9,1.6*3A
$GPRMC,181040.000,A,3544.7422,N,11914.8548,W,5.98,89.33,250119,,,A*43
$GPGGA,181041.000,3544.7423,N,11914.8533,W,1,11,0.9,91.8,M,-29.3,M,,0000*5A
$GPGLL,3544.7423,N,11914.8533,W,181041.000,A,A*43
$GPGSA,A,3,26,18,11,32,14,22,31,16,03,01,23,,1.8,0.9,1.6*3A
$GPRMC,181041.000,A,3544.7423,N,11914.8533,W,3.29,89.37,250119,,,A*47
$GPGGA,181042.000,3544.7423,N,11914.8522,W,1,11,0.9,91.8,M,-29.3,M,,0000*59
$GPGLL,3544.7423,N,11914.8522,W,181042.000,A,A*40
$GPGSA,A,3,26,18,11,32,14,22,31,16,03,01,23,,1.8,0.9,1.6*3A
$GPRMC,181042.000,A,3544.7423,N,11914.8522,W,2.72,87.66,250119,,,A*41
$GPGGA,181043.000,3544.7423,N,11914.8509,W,1,11,0.9,91.8,M,-29.3,M,,0000*51
$GPGLL,3544.7423,N,11914.8509,W,181043.000,A,A*48
$GPGSA,A,3,26,18,11,32,14,22,31,16,03,01,23,,1.8,0.9,1.6*3A
$GPRMC,181043.000,A,3544.7423,N,11914.8509,W,5.16,87.60,250119,,,A*4A
$GPGGA,181044.000,3544.7424,N,11914.8487,W,1,11,0.9,91.7,M,-29.3,M,,0000*59
$GPGLL,3544.7424,N,11914.8487,W,181044.000,A,A*4F
$GPGSA,A,3,26,18,11,32,14,22,31,16,03,01,23,,1.8,0.9,1.6*3A
$GPGSV,3,1,12,22,77,318,40,31,56,052,32,03,54,319,28,01,45,237,33*74
$GPGSV,3,2,12,14,31,060,26,18,29,202,34,23,28,279,29,26,27,129,30*7F
$GPGSV,3,3,12,11,18,225,38,32,15,071,37,16,11,154,33,25,03,034,25*79
$GPRMC,181044.000,A,3544.7424,N,11914.8487,W,7.68,88.83,250119,,,A*44
$GPGGA,181045.000,3544.7425,N,11914.8456,W,1,11,0.9,91.7,M,-29.3,M,,0000*55
$GPGLL,3544.7425,N,11914.8456,W,181045.000,A,A*43
$GPGSA,A,3,26,18,11,32,14,22,31,16,03,01,23,,1.8,0.9,1.6*3A
$GPRMC,181045.000,A,3544.7425,N,11914.8456,W,9.70,80.61,250119,,,A*4B
$GPGGA,181046.000,3544.7435,N,11914.8424,W,1,11,0.9,91.8,M,-29.3,M,,0000*5D
$GPGLL,3544.7435,N,11914.8424,W,181046.000,A,A*44
$GPGSA,A,3,26,18,11,32,14,22,31,16,03,01,23,,1.8,0.9,1.6*3A
$GPRMC,181046.000,A,3544.7435,N,11914.8424,W,10.65,61.39,250119,,,A*72
$GPGGA,181047.000,3544.7454,N,11914.8394,W,1,11,0.9,92.1,M,-29.3,M,,0000*5D
$GPGLL,3544.7454,N,11914.8394,W,181047.000,A,A*4E
$GPGSA,A,3,26,18,11,32,14,22,31,16,03,01,23,,1.8,0.9,1.6*3A
$GPRMC,181047.000,A,3544.7454,N,11914.8394,W,11.88,40.52,250119,,,A*74
$GPGGA,181048.000,3544.7484,N,11914.8372,W,1,11,0.9,92.4,M,-29.3,M,,0000*52
$GPGLL,3544.7484,N,11914.8372,W,181048.000,A,A*44
$GPGSA,A,3,26,18,11,32,14,22,31,16,03,01,23,,1.8,0.9,1.6*3A
$GPRMC,181048.000,A,3544.7484,N,11914.8372,W,13.79,20.72,250119,,,A*76
$GPGGA,181049.000,3544.7525,N,11914.8361,W,1,11,0.9,92.9,M,-29.3,M,,0000*56
$GPGLL,3544.7525,N,11914.8361,W,181049.000,A,A*4D
$GPGSA,A,3,26,18,11,32,14,22,31,16,03,01,23,,1.8,0.9,1.6*3A
$GPGSV,3,1,12,22,77,318,34,31,56,052,40,03,54,319,30,01,45,237,32*7A
$GPGSV,3,2,12,14,31,060,29,18,29,202,33,23,28,279,40,26,27,129,30*78
$GPGSV,3,3,12,11,18,225,37,32,15,071,23,16,11,154,39,25,03,034,17*78
$GPRMC,181049.000,A,3544.7525,N,11914.8361,W,15.32,6.57,250119,,,A*45
$GPGGA,181050.000,3544.7571,N,11914.8357,W,1,11,0.9,93.4,M,-29.3,M,,0000*56
$GPGLL,3544.7571,N,11914.8357,W,181050.000,A,A*41
$GPGSA,A,3,26,18,11,32,14,22,31,16,03,01,23,,1.8,0.9,1.6*3A
$GPRMC,181050.000,A,3544.7571,N,11914.8357,W,16.66,1.88,250119,,,A*4E
$GPGGA,181051.000,3544.7620,N,11914.8355,W,1,11,0.9,93.6,M,-29.3,M,,0000*50
$GPGLL,3544.7620,N,11914.8355,W,181051.000,A,A*45
$GPGSA,A,3,26,18,11,32,14,22,31,16,03,01,23,,1.8,0.9,1.6*3A
$GPRMC,181051.000,A,3544.7620,N,11914.8355,W,17.21,2.15,250119,,,A*4F
$GPGGA,181052.000,3544.7668,N,11914.8353,W,1,11,0.9,93.8,M,-29.3,M,,0000*57
$GPGLL,3544.7668,N,11914.8353,W,181052.000,A,A*4C
$GPGSA,A,3,26,18,11,32,14,22,31,16,03,01,23,,1.8,0.9,1.6*3A
$GPRMC,181052.000,A,3544.7668,N,11914.8353,W,16.80,1.36,250119,,,A*4E
$GPGGA,181053.000,3544.7714,N,11914.8352,W,1,11,0.9,94.2,M,-29.3,M,,0000*50
$GPGLL,3544.7714,N,11914.8352,W,181053.000,A,A*46
$GPGSA,A,3,26,18,11,32,14,22,31,16,03,01,23,,1.8,0.9,1.6*3A
$GPRMC,181053.000,A,3544.7714,N,11914.8352,W,16.16,0.60,250119,,,A*49
$GPGGA,181054.000,3544.7759,N,11914.8351,W,1,11,0.9,94.3,M,-29.3,M,,0000*5C
$GPGLL,3544.7759,N,11914.8351,W,181054.000,A,A*4B
$GPGSA,A,3,26,18,11,32,14,22,31,16,03,01,23,,1.8,0.9,1.6*3A
$GPGSV,3,1,12,22,77,318,34,31,56,052,37,03,54,319,30,01,45,237,33*7B
$GPGSV,3,2,12,14,31,060,36,18,29,202,34,23,28,279,41,26,27,129,26*77
$GPGSV,3,3,12,11,18,225,34,32,15,071,34,16,11,154,24,25,03,034,25*70
$GPRMC,181054.000,A,3544.7759,N,11914.8351,W,15.36,0.12,250119,,,A*40
$GPGGA,181055.000,3544.7802,N,11914.8350,W,1,11,0.9,94.2,M,-29.3,M,,0000*5C
$GPGLL,3544.7802,N,11914.8350,W,181055.000,A,A*4A
$GPGSA,A,3,26,18,11,32,14,22,31,16,03,01,23,,1.8,0.9,1.6*3A
$GPRMC,181055.000,A,3544.7802,N,11914.8350,W,14.80,0.73,250119,,,A*4A
$GPGGA,181056.000,3544.7842,N,11914.8349,W,1,11,0.9,94.5,M,-29.3,M,,0000*54
$GPGLL,3544.7842,N,11914.8349,W,181056.000,A,A*45
$GPGSA,A,3,26,18,11,32,14,22,31,16,03,01,23,,1.8,0.9,1.6*3A
$GPRMC,181056.000,A,3544.7842,N,11914.8349,W,13.98,0.81,250119,,,A*46
$GPGGA,181057.000,3544.7878,N,11914.8350,W,1,11,0.9,95.0,M,-29.3,M,,0000*50
$GPGLL,3544.7878,N,11914.8350,W,181057.000,A,A*45
$GPGSA,A,3,26,18,11,32,14,22,31,16,03,01,23,,1.8,0.9,1.6*3A
$GPRMC,181057.000,A,3544.7878,N,11914.8350,W,12.43,0.69,250119,,,A*47
$GPGGA,181058.000,3544.7910,N,11914.8350,W,1,11,0.9,95.6,M,-29.3,M,,0000*56
$GPGLL,3544.7910,N,11914.8350,W,181058.000,A,A*45
$GPGSA,A,3,26,18,11,32,14,22,31,16,03,01,23,,1.8,0.9,1.6*3A
$GPRMC,181058.000,A,3544.7910,N,11914.8350,W,10.83,359.92,250119,,,A*42
$GPGGA,181059.000,3544.7936,N,11914.8351,W,1,11,0.9,96.4,M,-29.3,M,,0000*53
$GPGLL,3544.7936,N,11914.8351,W,181059.000,A,A*41
$GPGSA,A,3,26,18,11,32,14,22,31,16,03,01,23,,1.8,0.9,1.6*3A
$GPGSV,3,1,12,22,77,318,34,31,56,052,36,03,54,319,30,01,45,237,33*7A
$GPGSV,3,2,12,14,31,060,36,18,29,202,35,23,28,279,42,26,27,129,31*73
$GPGSV,3,3,12,11,18,225,30,32,15,071,23,16,11,154,34,25,03,034,28*7E
$GPRMC,181059.000,A,3544.7936,N,11914.8351,W,9.14,0.23,250119,,,A*75
$GPGGA,181100.000,3544.7959,N,11914.8352,W,1,11,0.9,96.9,M,-29.3,M,,0000*59
$GPGLL,3544.7959,N,11914.8352,W,181100.000,A,A*46
$GPGSA,A,3,26,18,11,32,14,22,31,16,03,01,23,,1.8,0.9,1.6*3A
$GPRMC,181100.000,A,3544.7959,N,11914.8352,W,7.68,0.05,250119,,,A*73
$GPGGA,181101.000,3544.7978,N,11914.8351,W,1,11,0.9,96.8,M,-29.3,M,,0000*59
$GPGLL,3544.7978,N,11914.8351,W,181101.000,A,A*47
$GPGSA,A,3,26,18,11,32,14,22,31,16,03,01,23,,1.8,0.9,1.6*3A
$GPRMC,181101.000,A,3544.7978,N,11914.8351,W,5.39,0.47,250119,,,A*72
$GPGGA,181102.000,3544.7993,N,11914.8351,W,1,11,0.9,96.4,M,-29.3,M,,0000*53
$GPGLL,3544.7993,N,11914.8351,W,181102.000,A,A*41
$GPGSA,A,3,26,18,11,32,14,22,31,16,03,01,23,,1.8,0.9,1.6*3A
$GPRMC,181102.000,A,3544.7993,N,11914.8351,W,4.71,0.10,250119,,,A*7B
$GPGGA,181103.000,3544.8008,N,11914.8350,W,1,11,0.9,96.0,M,-29.3,M,,0000*53
$GPGLL,3544.8008,N,11914.8350,W,181103.000,A,A*45
$GPGSA,A,3,26,18,11,32,14,22,31,16,03,01,23,,1.8,0.9,1.6*3A
$GPRMC,181103.000,A,3544.8008,N,11914.8350,W,5.75,1.96,250119,,,A*75
$GPGGA,181104.000,3544.8028,N,11914.8348,W,1,11,0.9,95.8,M,-29.3,M,,0000*54
$GPGLL,3544.8028,N,11914.8348,W,181104.000,A,A*49
$GPGSA,A,3,26,18,11,32,14,22,31,16,03,01,23,,1.8,0.9,1.6*3A
$GPGSV,3,1,12,22,77,318,34,31,56,052,35,03,54,319,30,01,45,237,33*79
$GPGSV,3,2,12,14,31,060,34,18,29,202,35,23,28,279,41,26,27,129,32*71
$GPGSV,3,3,12,11,18,225,31,32,15,071,39,16,11,154,34,25,03,034,26*7A
$GPRMC,181104.000,A,3544.8028,N,11914.8348,W,7.90,5.31,250119,,,A*79
$GPGGA,181105.000,3544.8051,N,11914.8341,W,1,11,0.9,96.1,M,-29.3,M,,0000*58
$GPGLL,3544.8051,N,11914.8341,W,181105.000,A,A*4F
$GPGSA,A,3,26,18,11,32,14,22,31,16,03,01,23,,1.8,0.9,1.6*3A
$GPRMC,181105.000,A,3544.8051,N,11914.8341,W,9.20,17.18,250119,,,A*42
$GPGGA,181106.000,3544.8076,N,11914.8323,W,1,11,0.9,96.2,M,-29.3,M,,0000*59
$GPGLL,3544.8076,N,11914.8323,W,181106.000,A,A*4D
$GPGSA,A,3,26,18,11,32,14,22,31,16,03,01,23,,1.8,0.9,1.6*3A
$GPRMC,181106.000,A,3544.8076,N,11914.8323,W,11.61,36.36,250119,,,A*73
$GPGGA,181107.000,3544.8098,N,11914.8290,W,1,11,0.9,96.1,M,-29.3,M,,0000*52
$GPGLL,3544.8098,N,11914.8290,W,181107.000,A,A*45
$GPGSA,A,3,26,18,11,32,14,22,31,16,03,01,23,,1.8,0.9,1.6*3A
$GPRMC,181107.000,A,3544.8098,N,11914.8290,W,13.16,61.45,250119,,,A*7F
$GPGGA,181108.000,3544.8108,N,11914.8242,W,1,11,0.9,96.1,M,-29.3,M,,0000*5A
$GPGLL,3544.8108,N,11914.8242,W,181108.000,A,A*4D
$GPGSA,A,3,26,18,11,32,14,22,31,16,03,01,23,,1.8,0.9,1.6*3A
$GPRMC,181108.000,A,3544.8108,N,11914.8242,W,15.55,83.35,250119,,,A*7D
$GPGGA,181109.000,3544.8109,N,11914.8182,W,1,11,0.9,96.1,M,-29.3,M,,0000*55
$GPGLL,3544.8109,N,11914.8182,W,181109.000,A,A*42
$GPGSA,A,3,26,18,11,32,14,22,31,16,03,01,23,,1.8,0.9,1.6*3A
$GPGSV,3,1,12,22,77,318,40,31,56,052,32,03,54,319,30,01,45,237,33*7D
$GPGSV,3,2,12,14,31,060,25,18,29,202,34,23,28,279,32,26,27,129,24*73
$GPGSV,3,3,12,11,18,225,37,32,15,071,38,16,11,154,28,25,03,034,27*71
$GPRMC,181109.000,A,3544.8109,N,11914.8182,W,18.26,89.66,250119,,,A*77
$GPGGA,181110.000,3544.8109,N,11914.8113,W,1,11,0.9,96.0,M,-29.3,M,,0000*54
$GPGLL,3544.8109,N,11914.8113,W,181110.000,A,A*42
$GPGSA,A,3,26,18,11,32,14,22,31,16,03,01,23,,1.8,0.9,1.6*3A
$GPRMC,181110.000,A,3544.8109,N,11914.8113,W,20.76,90.14,250119,,,A*74
$GPGGA,181111.000,3544.8108,N,11914.8037,W,1,11,0.9,96.0,M,-29.3,M,,0000*53
$GPGLL,3544.8108,N,11914.8037,W,181111.000,A,A*45
$GPGSA,A,3,26,18,11,32,14,22,31,16,03,01,23,,1.8,0.9,1.6*3A
$GPRMC,181111.000,A,3544.8108,N,11914.8037,W,22.78,91.67,250119,,,A*7A
$GPGGA,181112.000,3544.8107,N,11914.7956,W,1,11,0.9,96.0,M,-29.3,M,,0000*5E
$GPGLL,3544.8107,N,11914.7956,W,181112.000,A,A*48
$GPGSA,A,3,26,18,11,32,14,22,31,16,03,01,23,,1.8,0.9,1.6*3A
$GPRMC,181112.000,A,3544.8107,N,11914.7956,W,23.96,90.82,250119,,,A*7C
$GPGGA,181113.000,3544.8106,N,11914.7870,W,1,11,0.9,95.9,M,-29.3,M,,0000*51
$GPGLL,3544.8106,N,11914.7870,W,181113.000,A,A*4D
$GPGSA,A,3,26,18,11,32,14,22,31,16,03,01,23,,1.8,0.9,1.6*3A
$GPRMC,181113.000,A,3544.8106,N,11914.7870,W,25.17,90.51,250119,,,A*78
$GPGGA,181114.000,3544.8107,N,11914.7780,W,1,11,0.9,95.8,M,-29.3,M,,0000*56
$GPGLL,3544.8107,N,11914.7780,W,181114.000,A,A*4B
$GPGSA,A,3,26,18,11,32,14,22,31,16,03,01,23,,1.8,0.9,1.6*3A
$GPGSV,3,1,12,22,77,318,40,31,56,052,33,03,54,319,28,01,45,237,33*75
$GPGSV,3,2,12,14,31,060,28,18,29,202,32,23,28,279,33,26,27,129,23*7E
$GPGSV,3,3,12,11,18,225,37,32,15,071,38,16,11,154,23,25,03,034,28*75
$GPRMC,181114.000,A,3544.8107,N,11914.7780,W,26.47,89.71,250119,,,A*72
$GPGGA,181115.000,3544.8107,N,11914.7686,W,1,11,0.9,96.0,M,-29.3,M,,0000*5B
$GPGLL,3544.8107,N,11914.7686,W,181115.000,A,A*4D
$GPGSA,A,3,26,18,11,32,14,22,31,16,03,01,23,,1.8,0.9,1.6*3A
$GPRMC,181115.000,A,3544.8107,N,11914.7686,W,27.69,87.40,250119,,,A*75
$GPGGA,181116.000,3544.8109,N,11914.7587,W,1,11,0.9,96.3,M,-29.3,M,,0000*57
$GPGLL,3544.8109,N,11914.7587,W,181116.000,A,A*42
$GPGSA,A,3,26,18,11,32,14,22,31,16,03,01,23,,1.8,0.9,1.6*3A
$GPRMC,181116.000,A,3544.8109,N,11914.7587,W,28.91,86.17,250119,,,A*71
$GPGGA,181117.000,3544.8113,N,11914.7486,W,1,11,0.9,96.6,M,-29.3,M,,0000*58
$GPGLL,3544.8113,N,11914.7486,W,181117.000,A,A*48
$GPGSA,A,3,26,18,11,32,14,22,31,16,03,01,23,,1.8,0.9,1.6*3A
$GPRMC,181117.000,A,3544.8113,N,11914.7486,W,29.46,86.56,250119,,,A*75
$GPGGA,181118.000,3544.8115,N,11914.7384,W,1,11,0.9,96.9,M,-29.3,M,,0000*5B
$GPGLL,3544.8115,N,11914.7384,W,181118.000,A,A*44
$GPGSA,A,3,26,18,11,32,14,22,31,16,03,01,23,,1.8,0.9,1.6*3A
$GPRMC,181118.000,A,3544.8115,N,11914.7384,W,29.52,87.83,250119,,,A*75
$GPGGA,181119.000,3544.8115,N,11914.7283,W,1,11,0.9,97.1,M,-29.3,M,,0000*55
$GPGLL,3544.8115,N,11914.7283,W,181119.000,A,A*43
$GPGSA,A,3,26,18,11,32,14,22,31,16,03,01,23,,1.8,0.9,1.6*3A
$GPGSV,3,1,12,22,77,318,40,31,56,052,34,03,54,319,29,01,45,237,33*73
$GPGSV,3,2,12,14,31,060,25,18,29,202,28,23,28,279,32,26,27,129,19*70
$GPGSV,3,3,12,11,18,225,38,32,15,071,32,16,11,154,37,25,03,034,20*7D
$GPRMC,181119.000,A,3544.8115,N,11914.7283,W,29.50,89.15,250119,,,A*71
$GPGGA,181120.000,3544.8114,N,11914.7181,W,1,11,0.9,97.6,M,-29.3,M,,0000*58
$GPGLL,3544.8114,N,11914.7181,W,181120.000,A,A*49
$GPGSA,A,3,26,18,11,32,14,22,31,16,03,01,23,,1.8,0.9,1.6*3A
$GPRMC,181120.000,A,3544.8114,N,11914.7181,W,29.53,89.51,250119,,,A*78
$GPGGA,181121.000,3544.8114,N,11914.7080,W,1,11,0.9,97.9,M,-29.3,M,,0000*56
$GPGLL,3544.8114,N,11914.7080,W,181121.000,A,A*48
$GPGSA,A,3,26,18,11,32,14,22,31,16,03,01,23,,1.8,0.9,1.6*3A
$GPRMC,181121.000,A,3544.8114,N,11914.7080,W,29.13,88.98,250119,,,A*79
$GPGGA,181122.000,3544.8114,N,11914.6981,W,1,11,0.9,98.2,M,-29.3,M,,0000*58
$GPGLL,3544.8114,N,11914.6981,W,181122.000,A,A*42
$GPGSA,A,3,26,18,11,32,14,22,31,16,03,01,23,,1.8,0.9,1.6*3A
$GPRMC,181122.000,A,3544.8114,N,11914.6981,W,28.53,90.24,250119,,,A*78
$GPGGA,181123.000,3544.8113,N,11914.6885,W,1,11,0.9,98.3,M,-29.3,M,,0000*5A
$GPGLL,3544.8113,N,11914.6885,W,181123.000,A,A*41
$GPGSA,A,3,26,18,11,32,14,22,31,16,03,01,23,,1.8,0.9,1.6*3A
$GPRMC,181123.000,A,3544.8113,N,11914.6885,W,27.53,89.47,250119,,,A*79
$GPGGA,181124.000,3544.8114,N,11914.6793,W,1,11,0.9,98.5,M,-29.3,M,,0000*54
$GPGLL,3544.8114,N,11914.6793,W,181124.000,A,A*49
$GPGSA,A,3,26,18,11,32,14,22,31,16,03,01,23,,1.8,0.9,1.6*3A
$GPGSV,3,1,12,22,77,318,40,31,56,052,34,03,54,319,29,01,45,237,33*73
$GPGSV,3,2,12,14,31,060,21,18,29,202,29,23,28,279,32,26,27,129,19*75
$GPGSV,3,3,12,11,18,225,38,32,15,071,34,16,11,154,33,25,03,034,34*7A
$GPRMC,181124.000,A,3544.8114,N,11914.6793,W,26.81,89.54,250119,,,A*7D
$GPGGA,181125.000,3544.8113,N,11914.6703,W,1,11,0.9,98.8,M,-29.3,M,,0000*56
$GPGLL,3544.8113,N,11914.6703,W,181125.000,A,A*46
$GPGSA,A,3,26,18,11,32,14,22,31,16,03,01,23,,1.8,0.9,1.6*3A
$GPRMC,181125.000,A,3544.8113,N,11914.6703,W,25.96,89.85,250119,,,A*7B
$GPGGA,181126.000,3544.8113,N,11914.6617,W,1,11,0.9,99.0,M,-29.3,M,,0000*58
$GPGLL,3544.8113,N,11914.6617,W,181126.000,A,A*41
$GPGSA,A,3,26,18,11,32,14,22,31,16,03,01,23,,1.8,0.9,1.6*3A
$GPRMC,181126.000,A,3544.8113,N,11914.6617,W,24.80,89.49,250119,,,A*7A
$GPGGA,181127.000,3544.8114,N,11914.6539,W,1,11,0.9,99.2,M,-29.3,M,,0000*53
$GPGLL,3544.8114,N,11914.6539,W,181127.000,A,A*48
$GPGSA,A,3,26,18,11,32,14,22,31,16,03,01,23,,1.8,0.9,1.6*3A
$GPRMC,181127.000,A,3544.8114,N,11914.6539,W,22.69,88.49,250119,,,A*73
$GPGGA,181128.000,3544.8116,N,11914.6468,W,1,11,0.9,99.3,M,-29.3,M,,0000*5A
$GPGLL,3544.8116,N,11914.6468,W,181128.000,A,A*40
$GPGSA,A,3,26,18,11,32,14,22,31,16,03,01,23,,1.8,0.9,1.6*3A
$GPRMC,181128.000,A,3544.8116,N,11914.6468,W,19.71,86.65,250119,,,A*7A
$GPGGA,181129.000,3544.8117,N,11914.6406,W,1,11,0.9,99.6,M,-29.3,M,,0000*57
$GPGLL,3544.8117,N,11914.6406,W,181129.000,A,A*48
$GPGSA,A,3,26,18,11,32,14,22,31,16,03,01,23,,1.8,0.9,1.6*3A
$GPGSV,3,1,12,22,77,318,40,31,56,052,27,03,54,319,29,01,45,237,34*76
$GPGSV,3,2,12,14,31,060,33,18,29,202,30,23,28,279,31,26,27,129,25*72
$GPGSV,3,3,12,11,18,225,38,32,15,071,23,16,11,154,35,25,03,034,25*7A
$GPRMC,181129.000,A,3544.8117,N,11914.6406,W,16.10,85.29,250119,,,A*71
$GPGGA,181130.000,3544.8118,N,11914.6358,W,1,11,0.9,99.6,M,-29.3,M,,0000*5C
$GPGLL,3544.8118,N,11914.6358,W,181130.000,A,A*43
$GPGSA,A,3,26,18,11,32,14,22,31,16,03,01,23,,1.8,0.9,1.6*3A
$GPRMC,181130.000,A,3544.8118,N,11914.6358,W,12.72,87.15,250119,,,A*77
$GPGGA,181131.000,3544.8119,N,11914.6322,W,1,10,1.0,99.6,M,-29.3,M,,0000*58
$GPGLL,3544.8119,N,11914.6322,W,181131.000,A,A*4E
$GPGSA,A,3,18,11,32,14,22,31,16,03,01,23,,,1.9,1.0,1.6*37
$GPRMC,181131.000,A,3544.8119,N,11914.6322,W,10.07,87.50,250119,,,A*7B
$GPGGA,181132.000,3544.8120,N,11914.6295,W,1,11,0.9,99.4,M,-29.3,M,,0000*57
$GPGLL,3544.8120,N,11914.6295,W,181132.000,A,A*4A
$GPGSA,A,3,26,18,11,32,14,22,31,16,03,01,23,,1.8,0.9,1.6*3A
$GPRMC,181132.000,A,3544.8120,N,11914.6295,W,7.24,87.92,250119,,,A*46
$GPGGA,181133.000,3544.8121,N,11914.6279,W,1,11,0.9,99.2,M,-29.3,M,,0000*53
$GPGLL,3544.8121,N,11914.6279,W,181133.000,A,A*48
$GPGSA,A,3,26,18,11,32,14,22,31,16,03,01,23,,1.8,0.9,1.6*3A
$GPRMC,181133.000,A,3544.8121,N,11914.6279,W,3.82,88.97,250119,,,A*46
$GPGGA,181134.000,3544.8122,N,11914.6273,W,1,11,0.9,99.0,M,-29.3,M,,0000*5F
$GPGLL,3544.8122,N,11914.6273,W,181134.000,A,A*46
$GPGSA,A,3,26,18,11,32,14,22,31,16,03,01,23,,1.8,0.9,1.6*3A
$GPGSV,3,1,12,22,77,318,40,31,56,052,34,03,54,319,30,01,45,237,34*7C
$GPGSV,3,2,12,14,31,060,27,18,29,202,30,23,28,279,32,26,27,129,19*7B
$GPGSV,3,3,12,11,18,225,38,32,15,071,35,16,11,154,26,25,03,034,31*7A
$GPRMC,181134.000,A,3544.8122,N,11914.6273,W,1.52,88.11,250119,,,A*49
$GPGGA,181135.000,3544.8123,N,11914.6274,W,1,11,0.9,98.7,M,-29.3,M,,0000*5E
$GPGLL,3544.8123,N,11914.6274,W,181135.000,A,A*41
$GPGSA,A,3,26,18,11,32,14,22,31,16,03,01,23,,1.8,0.9,1.6*3A
$GPRMC,181135.000,A,3544.8123,N,11914.6274,W,0.08,33.27,250119,,,A*45
$GPGGA,181136.000,3544.8123,N,11914.6276,W,1,11,0.9,98.5,M,-29.3,M,,0000*5D
$GPGLL,3544.8123,N,11914.6276,W,181136.000,A,A*40
$GPGSA,A,3,26,18,11,32,14,22,31,16,03,01,23,,1.8,0.9,1.6*3A
$GPRMC,181136.000,A,3544.8123,N,11914.6276,W,0.05,293.46,250119,,,A*76
$GPGGA,181137.000,3544.8124,N,11914.6279,W,1,11,0.9,98.3,M,-29.3,M,,0000*52
$GPGLL,3544.8124,N,11914.6279,W,181137.000,A,A*49
$GPGSA,A,3,26,18,11,32,14,22,31,16,03,01,23,,1.8,0.9,1.6*3A
$GPRMC,181137.000,A,3544.8124,N,11914.6279,W,0.15,304.17,250119,,,A*75
$GPGGA,181138.000,3544.8125,N,11914.6282,W,1,11,0.9,98.1,M,-29.3,M,,0000*5A
$GPGLL,3544.8125,N,11914.6282,W,181138.000,A,A*43
$GPGSA,A,3,26,18,11,32,14,22,31,16,03,01,23,,1.8,0.9,1.6*3A
$GPRMC,181138.000,A,3544.8125,N,11914.6282,W,0.10,320.11,250119,,,A*7A
$GPGGA,181139.000,3544.8124,N,11914.6284,W,1,11,0.9,98.0,M,-29.3,M,,0000*5D
$GPGLL,3544.8124,N,11914.6284,W,181139.000,A,A*45
$GPGSA,A,3,26,18,11,32,14,22,31,16,03,01,23,,1.8,0.9,1.6*3A
$GPGSV,3,1,12,22,78,317,41,31,55,051,33,03,54,319,29,01,44,236,34*72
$GPGSV,3,2,12,14,30,061,27,23,28,280,33,18,28,201,30,26,27,129,24*70
$GPGSV,3,3,12,11,17,224,38,32,14,072,36,16,11,153,29,25,02,033,35*7F
$GPRMC,181139.000,A,3544.8124,N,11914.6284,W,0.10,145.21,250119,,,A*7E
$GPGGA,181140.000,3544.8124,N,11914.6285,W,1,11,0.9,97.9,M,-29.3,M,,0000*54
$GPGLL,3544.8124,N,11914.6285,W,181140.000,A,A*4A
$GPGSA,A,3,26,18,11,32,14,22,31,16,03,01,23,,1.8,0.9,1.6*3A
$GPRMC,181140.000,A,3544.8124,N,11914.6285,W,0.10,148.51,250119,,,A*7B
$GPGGA,181141.000,3544.8124,N,11914.6287,W,1,11,0.9,97.8,M,-29.3,M,,0000*56
$GPGLL,3544.8124,N,11914.6287,W,181141.000,A,A*49
$GPGSA,A,3,26,18,11,32,14,22,31,16,03,01,23,,1.8,0.9,1.6*3A
$GPRMC,181141.000,A,3544.8124,N,11914.6287,W,0.06,300.30,250119,,,A*76
$GPGGA,181142.000,3544.8123,N,11914.6288,W,1,11,0.9,97.7,M,-29.3,M,,0000*52
$GPGLL,3544.8123,N,11914.6288,W,181142.000,A,A*42
$GPGSA,A,3,26,18,11,32,14,22,31,16,03,01,23,,1.8,0.9,1.6*3A
$GPRMC,181142.000,A,3544.8123,N,11914.6288,W,0.04,291.44,250119,,,A*75
$GPGGA,181143.000,3544.8122,N,11914.6289,W,1,11,0.9,97.7,M,-29.3,M,,0000*53
$GPGLL,3544.8122,N,11914.6289,W,181143.000,A,A*43
$GPGSA,A,3,26,18,11,32,14,22,31,16,03,01,23,,1.8,0.9,1.6*3A
$GPRMC,181143.000,A,3544.8122,N,11914.6289,W,0.01,286.90,250119,,,A*7E
$GPGGA,181144.000,3544.8121,N,11914.6289,W,1,11,0.9,97.7,M,-29.3,M,,0000*57
$GPGLL,3544.8121,N,11914.6289,W,181144.000,A,A*47
$GPGSA,A,3,26,18,11,32,14,22,31,16,03,01,23,,1.8,0.9,1.6*3A
$GPGSV,3,1,12,22,78,317,41,31,55,051,32,03,54,319,30,01,44,236,34*7B
$GPGSV,3,2,12,14,30,061,28,23,28,280,33,18,28,201,30,26,27,129,24*7F
$GPGSV,3,3,12,11,17,224,38,32,14,072,37,16,11,153,29,25,02,033,36*7D
$GPRMC,181144.000,A,3544.8121,N,11914.6289,W,0.06,161.87,250119,,,A*71
$GPGGA,181145.000,3544.8120,N,11914.6290,W,1,11,0.9,97.6,M,-29.3,M,,0000*5E
$GPGLL,3544.8120,N,11914.6290,W,181145.000,A,A*4F
$GPGSA,A,3,26,18,11,32,14,22,31,16,03,01,23,,1.8,0.9,1.6*3A
$GPRMC,181145.000,A,3544.8120,N,11914.6290,W,0.06,298.61,250119,,,A*74
$GPGGA,181146.000,3544.8119,N,11914.6291,W,1,11,0.9,97.5,M,-29.3,M,,0000*55
$GPGLL,3544.8119,N,11914.6291,W,181146.000,A,A*47
$GPGSA,A,3,26,18,11,32,14,22,31,16,03,01,23,,1.8,0.9,1.6*3A
$GPRMC,181146.000,A,3544.8119,N,11914.6291,W,0.04,319.89,250119,,,A*70
$GPGGA,181147.000,3544.8119,N,11914.6292,W,1,11,0.9,97.5,M,-29.3,M,,0000*57
$GPGLL,3544.8119,N,11914.6292,W,181147.000,A,A*45
$GPGSA,A,3,26,18,11,32,14,22,31,16,03,01,23,,1.8,0.9,1.6*3A
$GPRMC,181147.000,A,3544.8119,N,11914.6292,W,0.01,262.87,250119,,,A*74
$GPGGA,181148.000,3544.8118,N,11914.6293,W,1,11,0.9,97.4,M,-29.3,M,,0000*59
$GPGLL,3544.8118,N,11914.6293,W,181148.000,A,A*4A
$GPGSA,A,3,26,18,11,32,14,22,31,16,03,01,23,,1.8,0.9,1.6*3A
$GPRMC,181148.000,A,3544.8118,N,11914.6293,W,0.05,120.69,250119,,,A*7A
$GPGGA,181149.000,3544.8117,N,11914.6292,W,1,11,0.9,97.4,M,-29.3,M,,0000*56
$GPGLL,3544.8117,N,11914.6292,W,181149.000,A,A*45
$GPGSA,A,3,26,18,11,32,14,22,31,16,03,01,23,,1.8,0.9,1.6*3A
$GPGSV,3,1,12,22,78,317,41,31,55,051,32,03,54,319,30,01,44,236,34*7B
$GPGSV,3,2,12,14,30,061,29,23,28,280,34,18,28,201,30,26,27,129,24*79
$GPGSV,3,3,12,11,17,224,38,32,14,072,37,16,11,153,30,25,02,033,36*75
$GPRMC,181149.000,A,3544.8117,N,11914.6292,W,0.83,87.39,250119,,,A*42
$GPGGA,181150.000,3544.8117,N,11914.6289,W,1,11,0.9,97.2,M,-29.3,M,,0000*52
$GPGLL,3544.8117,N,11914.6289,W,181150.000,A,A*47
$GPGSA,A,3,26,18,11,32,14,22,31,16,03,01,23,,1.8,0.9,1.6*3A
$GPRMC,181150.000,A,3544.8117,N,11914.6289,W,1.71,87.07,250119,,,A*41
$GPGGA,181151.000,3544.8119,N,11914.6287,W,1,11,0.9,96.9,M,-29.3,M,,0000*59
$GPGLL,3544.8119,N,11914.6287,W,181151.000,A,A*46
$GPGSA,A,3,26,18,11,32,14,22,31,16,03,01,23,,1.8,0.9,1.6*3A
$GPRMC,181151.000,A,3544.8119,N,11914.6287,W,1.24,87.50,250119,,,A*42
$GPGGA,181152.000,3544.8119,N,11914.6285,W,1,10,1.0,96.7,M,-29.3,M,,0000*5F
$GPGLL,3544.8119,N,11914.6285,W,181152.000,A,A*47
$GPGSA,A,3,18,11,32,14,22,31,16,03,01,23,,,1.9,1.0,1.6*37
$GPRMC,181152.000,A,3544.8119,N,11914.6285,W,0.27,83.61,250119,,,A*47
$GPGGA,181153.000,3544.8119,N,11914.6286,W,1,10,1.0,96.5,M,-29.3,M,,0000*5F
$GPGLL,3544.8119,N,11914.6286,W,181153.000,A,A*45
$GPGSA,A,3,18,11,32,14,22,31,16,03,01,23,,,1.9,1.0,1.6*37
$GPRMC,181153.000,A,3544.8119,N,11914.6286,W,0.06,318.89,250119,,,A*71
$GPGGA,181154.000,3544.8119,N,11914.6287,W,1,11,0.9,96.3,M,-29.3,M,,0000*56
$GPGLL,3544.8119,N,11914.6287,W,181154.000,A,A*43
$GPGSA,A,3,26,18,11,32,14,22,31,16,03,01,23,,1.8,0.9,1.6*3A
$GPGSV,3,1,12,22,78,317,41,31,55,051,33,03,54,319,31,01,44,236,34*7B
$GPGSV,3,2,12,14,30,061,28,23,28,280,26,18,28,201,31,26,27,129,14*79
$GPGSV,3,3,12,11,17,224,38,32,14,072,36,16,11,153,38,25,02,033,17*7F
$GPRMC,181154.000,A,3544.8119,N,11914.6287,W,0.07,321.15,250119,,,A*79
$GPGGA,181155.000,3544.8120,N,11914.6289,W,1,11,0.9,96.1,M,-29.3,M,,0000*51
$GPGLL,3544.8120,N,11914.6289,W,181155.000,A,A*46
$GPGSA,A,3,26,18,11,32,14,22,31,16,03,01,23,,1.8,0.9,1.6*3A
$GPRMC,181155.000,A,3544.8120,N,11914.6289,W,0.10,308.66,250119,,,A*75
$GPGGA,181156.000,3544.8121,N,11914.6290,W,1,11,0.9,95.7,M,-29.3,M,,0000*5E
$GPGLL,3544.8121,N,11914.6290,W,181156.000,A,A*4C
$GPGSA,A,3,26,18,11,32,14,22,31,16,03,01,23,,1.8,0.9,1.6*3A
$GPRMC,181156.000,A,3544.8121,N,11914.6290,W,0.19,323.73,250119,,,A*7B
$GPGGA,181157.000,3544.8121,N,11914.6292,W,1,11,0.9,95.5,M,-29.3,M,,0000*5F
$GPGLL,3544.8121,N,11914.6292,W,181157.000,A,A*4F
$GPGSA,A,3,26,18,11,32,14,22,31,16,03,01,23,,1.8,0.9,1.6*3A
$GPRMC,181157.000,A,3544.8121,N,11914.6292,W,0.09,313.88,250119,,,A*7E
$GPGGA,181158.000,3544.8123,N,11914.6295,W,1,11,0.9,95.0,M,-29.3,M,,0000*50
$GPGLL,3544.8123,N,11914.6295,W,181158.000,A,A*45
$GPGSA,A,3,26,18,11,32,14,22,31,16,03,01,23,,1.8,0.9,1.6*3A
$GPRMC,181158.000,A,3544.8123,N,11914.6295,W,0.18,320.74,250119,,,A*77
$GPGGA,181159.000,3544.8126,N,11914.6298,W,1,11,0.9,94.1,M,-29.3,M,,0000*59
$GPGLL,3544.8126,N,11914.6298,W,181159.000,A,A*4C
$GPGSA,A,3,26,18,11,32,14,22,31,16,03,01,23,,1.8,0.9,1.6*3A
$GPGSV,3,1,12,22,78,317,41,31,55,051,33,03,54,319,32,01,44,236,35*79
$GPGSV,3,2,12,14,30,061,27,23,28,280,24,18,28,201,31,26,27,129,24*77
$GPGSV,3,3,12,11,17,224,37,32,14,072,36,16,11,153,38,25,02,033,21*75
$GPRMC,181159.000,A,3544.8126,N,11914.6298,W,0.11,331.06,250119,,,A*72
$GPGGA,181200.000,3544.8129,N,11914.6302,W,1,11,0.9,93.3,M,-29.3,M,,0000*5E
$GPGLL,3544.8129,N,11914.6302,W,181200.000,A,A*4E
$GPGSA,A,3,26,18,11,32,14,22,31,16,03,01,23,,1.8,0.9,1.6*3A
$GPRMC,181200.000,A,3544.8129,N,11914.6302,W,0.17,319.43,250119,,,A*7D
$GPGGA,181201.000,3544.8131,N,11914.6305,W,1,11,0.9,92.6,M,-29.3,M,,0000*55
$GPGLL,3544.8131,N,11914.6305,W,181201.000,A,A*41
$GPGSA,A,3,26,18,11,32,14,22,31,16,03,01,23,,1.8,0.9,1.6*3A
$GPRMC,181201.000,A,3544.8131,N,11914.6305,W,0.19,327.08,250119,,,A*7E
$GPGGA,181202.000,3544.8133,N,11914.6308,W,1,11,0.9,91.8,M,-29.3,M,,0000*54
$GPGLL,3544.8133,N,11914.6308,W,181202.000,A,A*4D
$GPGSA,A,3,26,18,11,32,14,22,31,16,03,01,23,,1.8,0.9,1.6*3A
$GPRMC,181202.000,A,3544.8133,N,11914.6308,W,0.34,319.28,250119,,,A*72
$GPGGA,181203.000,3544.8136,N,11914.6312,W,1,11,0.9,91.0,M,-29.3,M,,0000*53
$GPGLL,3544.8136,N,11914.6312,W,181203.000,A,A*42
$GPGSA,A,3,26,18,11,32,14,22,31,16,03,01,23,,1.8,0.9,1.6*3A
$GPRMC,181203.000,A,3544.8136,N,11914.6312,W,0.27,322.87,250119,,,A*72
$GPGGA,181204.000,3544.8138,N,11914.6314,W,1,11,0.9,90.4,M,-29.3,M,,0000*59
$GPGLL,3544.8138,N,11914.6314,W,181204.000,A,A*4D
$GPGSA,A,3,26,18,11,32,14,22,31,16,03,01,23,,1.8,0.9,1.6*3A
$GPGSV,3,1,12,22,78,317,42,31,55,051,33,03,54,319,32,01,44,236,35*7A
$GPGSV,3,2,12,14,30,061,27,23,28,280,25,18,28,201,31,26,27,129,24*76
$GPGSV,3,3,12,11,17,224,38,32,14,072,36,16,11,153,38,25,02,033,27*7C
$GPRMC,181204.000,A,3544.8138,N,11914.6314,W,0.14,330.01,250119,,,A*70
$GPGGA,181205.000,3544.8139,N,11914.6315,W,1,11,0.9,89.8,M,-29.3,M,,0000*5C
$GPGLL,3544.8139,N,11914.6315,W,181205.000,A,A*4C
$GPGSA,A,3,26,18,11,32,14,22,31,16,03,01,23,,1.8,0.9,1.6*3A
$GPRMC,181205.000,A,3544.8139,N,11914.6315,W,0.06,356.63,250119,,,A*76
$GPGGA,181206.000,3544.8140,N,11914.6316,W,1,11,0.9,89.4,M,-29.3,M,,0000*5E
$GPGLL,3544.8140,N,11914.6316,W,181206.000,A,A*42
$GPGSA,A,3,26,18,11,32,14,22,31,16,03,01,23,,1.8,0.9,1.6*3A
$GPRMC,181206.000,A,3544.8140,N,11914.6316,W,0.07,345.14,250119,,,A*7B
$GPGGA,181207.000,3544.8140,N,11914.6316,W,1,11,0.9,89.0,M,-29.3,M,,0000*5B
$GPGLL,3544.8140,N,11914.6316,W,181207.000,A,A*43
$GPGSA,A,3,26,18,11,32,14,22,31,16,03,01,23,,1.8,0.9,1.6*3A
$GPRMC,181207.000,A,3544.8140,N,11914.6316,W,0.09,345.22,250119,,,A*71
$GPGGA,181208.000,3544.8140,N,11914.6316,W,1,11,0.9,88.8,M,-29.3,M,,0000*5D
$GPGLL,3544.8140,N,11914.6316,W,181208.000,A,A*4C
$GPGSA,A,3,26,18,11,32,14,22,31,16,03,01,23,,1.8,0.9,1.6*3A
$GPRMC,181208.000,A,3544.8140,N,11914.6316,W,0.07,336.76,250119,,,A*75
$GPGGA,181209.000,3544.8140,N,11914.6315,W,1,11,0.9,88.5,M,-29.3,M,,0000*52
$GPGLL,3544.8140,N,11914.6315,W,181209.000,A,A*4E
$GPGSA,A,3,26,18,11,32,14,22,31,16,03,01,23,,1.8,0.9,1.6*3A
$GPGSV,3,1,12,22,78,317,42,31,55,051,32,03,55,319,33,01,44,236,35*7B
$GPGSV,3,2,12,14,30,061,27,23,29,280,29,18,28,201,31,26,27,129,23*7C
$GPGSV,3,3,12,11,17,224,37,32,14,072,35,16,11,153,38,25,02,033,29*7E
$GPRMC,181209.000,A,3544.8140,N,11914.6315,W,0.04,71.10,250119,,,A*44
$GPGGA,181210.000,3544.8141,N,11914.6316,W,1,11,0.9,88.1,M,-29.3,M,,0000*5C
$GPGLL,3544.8141,N,11914.6316,W,181210.000,A,A*44
$GPGSA,A,3,26,18,11,32,14,22,31,16,03,01,23,,1.8,0.9,1.6*3A
$GPRMC,181210.000,A,3544.8141,N,11914.6316,W,0.05,107.65,250119,,,A*7D
$GPGGA,181211.000,3544.8142,N,11914.6317,W,1,11,0.9,87.8,M,-29.3,M,,0000*59
$GPGLL,3544.8142,N,11914.6317,W,181211.000,A,A*47
$GPGSA,A,3,26,18,11,32,14,22,31,16,03,01,23,,1.8,0.9,1.6*3A
$GPRMC,181211.000,A,3544.8142,N,11914.6317,W,0.03,84.91,250119,,,A*49
$GPGGA,181212.000,3544.8143,N,11914.6317,W,1,11,0.9,87.5,M,-29.3,M,,0000*56
$GPGLL,3544.8143,N,11914.6317,W,181212.000,A,A*45
$GPGSA,A,3,26,18,11,32,14,22,31,16,03,01,23,,1.8,0.9,1.6*3A
$GPRMC,181212.000,A,3544.8143,N,11914.6317,W,0.03,357.07,250119,,,A*79
$GPGGA,181213.000,3544.8143,N,11914.6318,W,1,11,0.9,87.2,M,-29.3,M,,0000*5F
$GPGLL,3544.8143,N,11914.6318,W,181213.000,A,A*4B
$GPGSA,A,3,26,18,11,32,14,22,31,16,03,01,23,,1.8,0.9,1.6*3A
$GPRMC,181213.000,A,3544.8143,N,11914.6318,W,0.24,83.58,250119,,,A*42
$GPGGA,181214.000,3544.8143,N,11914.6313,W,1,11,0.9,87.1,M,-29.3,M,,0000*50
$GPGLL,3544.8143,N,11914.6313,W,181214.000,A,A*47
$GPGSA,A,3,26,18,11,32,14,22,31,16,03,01,23,,1.8,0.9,1.6*3A
$GPGSV,3,1,12,22,78,317,42,31,55,051,32,03,55,319,33,01,44,236,35*7B
$GPGSV,3,2,12,14,30,061,27,23,29,280,29,18,28,201,31,26,27,129,23*7C
$GPGSV,3,3,12,11,17,224,37,32,14,072,35,16,11,153,37,25,02,033,30*79
$GPRMC,181214.000,A,3544.8143,N,11914.6313,W,1.97,85.63,250119,,,A*49
$GPGGA,181215.000,3544.8143,N,11914.6302,W,1,11,0.9,87.1,M,-29.3,M,,0000*51
$GPGLL,3544.8143,N,11914.6302,W,181215.000,A,A*46
$GPGSA,A,3,26,18,11,32,14,22,31,16,03,01,23,,1.8,0.9,1.6*3A
$GPRMC,181215.000,A,3544.8143,N,11914.6302,W,3.53,88.58,250119,,,A*47
$GPGGA,181216.000,3544.8143,N,11914.6289,W,1,11,0.9,87.3,M,-29.3,M,,0000*52
$GPGLL,3544.8143,N,11914.6289,W,181216.000,A,A*47
$GPGSA,A,3,26,18,11,32,14,22,31,16,03,01,23,,1.8,0.9,1.6*3A
$GPRMC,181216.000,A,3544.8143,N,11914.6289,W,3.54,88.59,250119,,,A*40
$GPGGA,181217.000,3544.8143,N,11914.6275,W,1,11,0.9,87.5,M,-29.3,M,,0000*56
$GPGLL,3544.8143,N,11914.6275,W,181217.000,A,A*45
$GPGSA,A,3,26,18,11,32,14,22,31,16,03,01,23,,1.8,0.9,1.6*3A
$GPRMC,181217.000,A,3544.8143,N,11914.6275,W,3.63,90.23,250119,,,A*42
$GPGGA,181218.000,3544.8142,N,11914.6260,W,1,11,0.9,87.7,M,-29.3,M,,0000*5E
$GPGLL,3544.8142,N,11914.6260,W,181218.000,A,A*4F
$GPGSA,A,3,26,18,11,32,14,22,31,16,03,01,23,,1.8,0.9,1.6*3A
$GPRMC,181218.000,A,3544.8142,N,11914.6260,W,3.66,92.14,250119,,,A*4B
$GPGGA,181219.000,3544.8143,N,11914.6246,W,1,11,0.9,87.8,M,-29.3,M,,0000*55
$GPGLL,3544.8143,N,11914.6246,W,181219.000,A,A*4B
$GPGSA,A,3,26,18,11,32,14,22,31,16,03,01,23,,1.8,0.9,1.6*3A
$GPGSV,3,1,12,22,78,317,42,31,55,051,22,03,55,319,32,01,44,236,35*7B
$GPGSV,3,2,12,14,30,061,18,23,29,280,34,18,28,201,32,26,27,129,17*78
$GPGSV,3,3,12,11,17,224,38,32,14,072,36,16,11,153,37,25,02,033,31*74
$GPRMC,181219.000,A,3544.8143,N,11914.6246,W,3.76,90.47,250119,,,A*4A
$GPGGA,181220.000,3544.8142,N,11914.6232,W,1,11,0.9,87.9,M,-29.3,M,,0000*5C
$GPGLL,3544.8142,N,11914.6232,W,181220.000,A,A*43
$GPGSA,A,3,26,18,11,32,14,22,31,16,03,01,23,,1.8,0.9,1.6*3A
$GPRMC,181220.000,A,3544.8142,N,11914.6232,W,3.74,89.56,250119,,,A*48
$GPGGA,181221.000,3544.8142,N,11914.6215,W,1,11,0.9,87.9,M,-29.3,M,,0000*58
$GPGLL,3544.8142,N,11914.6215,W,181221.000,A,A*47
$GPGSA,A,3,26,18,11,32,14,22,31,16,03,01,23,,1.8,0.9,1.6*3A
$GPRMC,181221.000,A,3544.8142,N,11914.6215,W,4.27,89.58,250119,,,A*43
$GPGGA,181222.000,3544.8142,N,11914.6195,W,1,11,0.9,87.9,M,-29.3,M,,0000*50
$GPGLL,3544.8142,N,11914.6195,W,181222.000,A,A*4F
$GPGSA,A,3,26,18,11,32,14,22,31,16,03,01,23,,1.8,0.9,1.6*3A
$GPRMC,181222.000,A,3544.8142,N,11914.6195,W,5.40,90.57,250119,,,A*4C
$GPGGA,181223.000,3544.8142,N,11914.6171,W,1,11,0.9,87.9,M,-29.3,M,,0000*5B
$GPGLL,3544.8142,N,11914.6171,W,181223.000,A,A*44
$GPGSA,A,3,26,18,11,32,14,22,31,16,03,01,23,,1.8,0.9,1.6*3A
$GPRMC,181223.000,A,3544.8142,N,11914.6171,W,7.11,89.74,250119,,,A*48
$GPGGA,181224.000,3544.8144,N,11914.6142,W,1,11,0.9,87.7,M,-29.3,M,,0000*54
$GPGLL,3544.8144,N,11914.6142,W,181224.000,A,A*45
$GPGSA,A,3,26,18,11,32,14,22,31,16,03,01,23,,1.8,0.9,1.6*3A
$GPGSV,3,1,12,22,78,317,41,31,55,051,32,03,55,319,24,01,44,236,29*73
$GPGSV,3,2,12,14,30,061,24,23,29,280,32,18,28,201,33,26,27,129,25*71
$GPGSV,3,3,12,11,17,224,38,32,14,072,36,16,11,153,28,25,02,033,34*7F
$GPRMC,181224.000,A,3544.8144,N,11914.6142,W,9.49,89.67,250119,,,A*48
$GPGGA,181225.000,3544.8146,N,11914.6104,W,1,11,0.9,87.5,M,-29.3,M,,0000*57
$GPGLL,3544.8146,N,11914.6104,W,181225.000,A,A*44
$GPGSA,A,3,26,18,11,32,14,22,31,16,03,01,23,,1.8,0.9,1.6*3A
$GPRMC,181225.000,A,3544.8146,N,11914.6104,W,11.43,88.97,250119,,,A*74
$GPGGA,181226.000,3544.8148,N,11914.6065,W,1,11,0.9,87.3,M,-29.3,M,,0000*5A
$GPGLL,3544.8148,N,11914.6065,W,181226.000,A,A*4F
$GPGSA,A,3,26,18,11,32,14,22,31,16,03,01,23,,1.8,0.9,1.6*3A
$GPRMC,181226.000,A,3544.8148,N,11914.6065,W,11.64,86.83,250119,,,A*71
$GPGGA,181227.000,3544.8152,N,11914.6022,W,1,11,0.9,87.4,M,-29.3,M,,0000*54
$GPGLL,3544.8152,N,11914.6022,W,181227.000,A,A*46
$GPGSA,A,3,26,18,11,32,14,22,31,16,03,01,23,,1.8,0.9,1.6*3A
$GPRMC,181227.000,A,3544.8152,N,11914.6022,W,12.07,81.30,250119,,,A*71
$GPGGA,181228.000,3544.8163,N,11914.5980,W,1,11,0.9,87.7,M,-29.3,M,,0000*58
$GPGLL,3544.8163,N,11914.5980,W,181228.000,A,A*49
$GPGSA,A,3,26,18,11,32,14,22,31,16,03,01,23,,1.8,0.9,1.6*3A
$GPRMC,181228.000,A,3544.8163,N,11914.5980,W,12.87,64.99,250119,,,A*7E
$GPGGA,181229.000,3544.8185,N,11914.5941,W,1,11,0.9,87.6,M,-29.3,M,,0000*5D
$GPGLL,3544.8185,N,11914.5941,W,181229.000,A,A*4D
$GPGSA,A,3,26,18,11,32,14,22,31,16,03,01,23,,1.8,0.9,1.6*3A
$GPGSV,3,1,12,22,78,317,33,31,55,051,41,03,55,319,39,01,44,236,32*74
$GPGSV,3,2,12,14,30,061,30,23,29,280,39,18,28,201,37,26,27,129,33*7C
$GPGSV,3,3,12,11,17,224,38,32,14,072,32,16,11,153,35,25,02,033,35*76
$GPRMC,181229.000,A,3544.8185,N,11914.5941,W,13.96,47.42,250119,,,A*7C
$GPGGA,181230.000,3544.8218,N,11914.5909,W,1,11,0.9,87.9,M,-29.3,M,,0000*51
$GPGLL,3544.8218,N,11914.5909,W,181230.000,A,A*4E
$GPGSA,A,3,26,18,11,32,14,22,31,16,03,01,23,,1.8,0.9,1.6*3A
$GPRMC,181230.000,A,3544.8218,N,11914.5909,W,15.39,27.79,250119,,,A*72
$GPGGA,181231.000,3544.8263,N,11914.5893,W,1,10,1.0,87.7,M,-29.3,M,,0000*59
$GPGLL,3544.8263,N,11914.5893,W,181231.000,A,A*41
$GPGSA,A,3,26,18,32,14,22,31,16,03,01,23,,,2.0,1.0,1.7*38
$GPRMC,181231.000,A,3544.8263,N,11914.5893,W,17.55,9.27,250119,,,A*42
$GPGGA,181232.000,3544.8314,N,11914.5893,W,1,11,0.9,87.3,M,-29.3,M,,0000*56
$GPGLL,3544.8314,N,11914.5893,W,181232.000,A,A*43
$GPGSA,A,3,26,18,11,32,14,22,31,16,03,01,23,,1.8,0.9,1.6*3A
$GPRMC,181232.000,A,3544.8314,N,11914.5893,W,17.52,353.13,250119,,,A*4C
$GPGGA,181233.000,3544.8363,N,11914.5908,W,1,11,0.9,86.7,M,-29.3,M,,0000*51
$GPGLL,3544.8363,N,11914.5908,W,181233.000,A,A*41
$GPGSA,A,3,26,18,11,32,14,22,31,16,03,01,23,,1.8,0.9,1.6*3A
$GPRMC,181233.000,A,3544.8363,N,11914.5908,W,17.93,338.80,250119,,,A*44
$GPGGA,181234.000,3544.8412,N,11914.5938,W,1,11,0.9,86.5,M,-29.3,M,,0000*56
$GPGLL,3544.8412,N,11914.5938,W,181234.000,A,A*44
$GPGSA,A,3,26,18,11,32,14,22,31,16,03,01,23,,1.8,0.9,1.6*3A
$GPGSV,3,1,12,22,78,317,43,31,55,051,40,03,55,319,36,01,44,236,40*78
$GPGSV,3,2,12,14,30,061,36,23,29,280,40,18,28,201,36,26,27,129,37*71
$GPGSV,3,3,12,11,17,224,40,32,14,072,36,16,11,153,36,25,02,033,41*7D
$GPRMC,181234.000,A,3544.8412,N,11914.5938,W,20.64,329.71,250119,,,A*43
$GPGGA,181235.000,3544.8465,N,11914.5980,W,1,11,0.9,86.2,M,-29.3,M,,0000*53
$GPGLL,3544.8465,N,11914.5980,W,181235.000,A,A*46
$GPGSA,A,3,26,18,11,32,14,22,31,16,03,01,23,,1.8,0.9,1.6*3A
$GPRMC,181235.000,A,3544.8465,N,11914.5980,W,23.60,324.38,250119,,,A*46
$GPGGA,181236.000,3544.8521,N,11914.6034,W,1,11,0.9,85.9,M,-29.3,M,,0000*5C
$GPGLL,3544.8521,N,11914.6034,W,181236.000,A,A*41
$GPGSA,A,3,26,18,11,32,14,22,31,16,03,01,23,,1.8,0.9,1.6*3A
$GPRMC,181236.000,A,3544.8521,N,11914.6034,W,26.05,319.75,250119,,,A*40
$GPGGA,181237.000,3544.8578,N,11914.6097,W,1,11,0.9,85.4,M,-29.3,M,,0000*55
$GPGLL,3544.8578,N,11914.6097,W,181237.000,A,A*45
$GPGSA,A,3,26,18,11,32,14,22,31,16,03,01,23,,1.8,0.9,1.6*3A
$GPRMC,181237.000,A,3544.8578,N,11914.6097,W,27.81,315.24,250119,,,A*41
$GPGGA,181238.000,3544.8635,N,11914.6166,W,1,11,0.9,85.0,M,-29.3,M,,0000*5B
$GPGLL,3544.8635,N,11914.6166,W,181238.000,A,A*4F
$GPGSA,A,3,26,18,11,32,14,22,31,16,03,01,23,,1.8,0.9,1.6*3A
$GPRMC,181238.000,A,3544.8635,N,11914.6166,W,28.97,315.11,250119,,,A*45
$GPGGA,181239.000,3544.8696,N,11914.6237,W,1,11,0.9,84.5,M,-29.3,M,,0000*50
$GPGLL,3544.8696,N,11914.6237,W,181239.000,A,A*40
$GPGSA,A,3,26,18,11,32,14,22,31,16,03,01,23,,1.8,0.9,1.6*3A
$GPGSV,3,1,12,22,78,317,44,31,55,051,33,03,55,319,38,01,44,236,39*7B
$GPGSV,3,2,12,14,30,061,39,23,29,280,34,18,28,201,41,26,27,129,36*7C
$GPGSV,3,3,12,11,17,224,39,32,14,072,27,16,11,153,36,25,02,033,33*76
$GPRMC,181239.000,A,3544.8696,N,11914.6237,W,30.34,318.43,250119,,,A*40
$GPGGA,181240.000,3544.8763,N,11914.6306,W,1,11,0.9,83.9,M,-29.3,M,,0000*5D
$GPGLL,3544.8763,N,11914.6306,W,181240.000,A,A*46
$GPGSA,A,3,26,18,11,32,14,22,31,16,03,01,23,,1.8,0.9,1.6*3A
$GPRMC,181240.000,A,3544.8763,N,11914.6306,W,31.61,321.44,250119,,,A*4A
$GPGGA,181241.000,3544.8835,N,11914.6374,W,1,11,0.9,83.3,M,-29.3,M,,0000*5F
$GPGLL,3544.8835,N,11914.6374,W,181241.000,A,A*4E
$GPGSA,A,3,26,18,11,32,14,22,31,16,03,01,23,,1.8,0.9,1.6*3A
$GPRMC,181241.000,A,3544.8835,N,11914.6374,W,32.56,324.31,250119,,,A*42
$GPGGA,181242.000,3544.8911,N,11914.6437,W,1,11,0.9,83.0,M,-29.3,M,,0000*58
$GPGLL,3544.8911,N,11914.6437,W,181242.000,A,A*4A
$GPGSA,A,3,26,18,11,32,14,22,31,16,03,01,23,,1.8,0.9,1.6*3A
$GPRMC,181242.000,A,3544.8911,N,11914.6437,W,32.73,327.27,250119,,,A*45
$GPGGA,181243.000,3544.8990,N,11914.6495,W,1,11,0.9,82.9,M,-29.3,M,,0000*50
$GPGLL,3544.8990,N,11914.6495,W,181243.000,A,A*4A
$GPGSA,A,3,26,18,11,32,14,22,31,16,03,01,23,,1.8,0.9,1.6*3A
$GPRMC,181243.000,A,3544.8990,N,11914.6495,W,32.39,330.35,250119,,,A*4E
$GPGGA,181244.000,3544.9070,N,11914.6548,W,1,11,0.9,82.9,M,-29.3,M,,0000*50
$GPGLL,3544.9070,N,11914.6548,W,181244.000,A,A*4A
$GPGSA,A,3,26,18,11,32,14,22,31,16,03,01,23,,1.8,0.9,1.6*3A
$GPGSV,3,1,12,22,79,317,42,03,55,319,34,31,55,051,39,01,44,235,40*77
$GPGSV,3,2,12,14,30,061,38,23,29,280,29,18,28,201,36,26,28,128,38*71
$GPGSV,3,3,12,11,17,224,39,32,14,072,38,16,12,153,36,25,02,033,23*7A
$GPRMC,181244.000,A,3544.9070,N,11914.6548,W,32.26,333.13,250119,,,A*47
$GPGGA,181245.000,3544.9151,N,11914.6597,W,1,11,0.9,83.0,M,-29.3,M,,0000*59
$GPGLL,3544.9151,N,11914.6597,W,181245.000,A,A*4B
$GPGSA,A,3,26,18,11,32,14,22,31,16,03,01,23,,1.8,0.9,1.6*3A
$GPRMC,181245.000,A,3544.9151,N,11914.6597,W,32.66,334.49,250119,,,A*4A
$GPGGA,181246.000,3544.9235,N,11914.6645,W,1,11,0.9,83.3,M,-29.3,M,,0000*54
$GPGLL,3544.9235,N,11914.6645,W,181246.000,A,A*45
$GPGSA,A,3,26,18,11,32,14,22,31,16,03,01,23,,1.8,0.9,1.6*3A
$GPRMC,181246.000,A,3544.9235,N,11914.6645,W,33.45,336.06,250119,,,A*4D
$GPGGA,181247.000,3544.9322,N,11914.6690,W,1,11,0.9,83.8,M,-29.3,M,,0000*51
$GPGLL,3544.9322,N,11914.6690,W,181247.000,A,A*4B
$GPGSA,A,3,26,18,11,32,14,22,31,16,03,01,23,,1.8,0.9,1.6*3A
$GPRMC,181247.000,A,3544.9322,N,11914.6690,W,34.01,337.52,250119,,,A*44
$GPGGA,181248.000,3544.9412,N,11914.6735,W,1,11,0.9,84.2,M,-29.3,M,,0000*59
$GPGLL,3544.9412,N,11914.6735,W,181248.000,A,A*4E
$GPGSA,A,3,26,18,11,32,14,22,31,16,03,01,23,,1.8,0.9,1.6*3A
$GPRMC,181248.000,A,3544.9412,N,11914.6735,W,34.77,338.58,250119,,,A*45
$GPGGA,181249.000,3544.9504,N,11914.6779,W,1,11,0.9,84.9,M,-29.3,M,,0000*5D
$GPGLL,3544.9504,N,11914.6779,W,181249.000,A,A*41
$GPGSA,A,3,26,18,11,32,14,22,31,16,03,01,23,,1.8,0.9,1.6*3A
$GPGSV,3,1,12,22,79,317,41,03,55,319,40,31,55,051,40,01,44,235,41*78
$GPGSV,3,2,12,14,30,061,27,23,29,280,41,18,28,201,33,26,28,128,34*78
$GPGSV,3,3,12,11,17,224,38,32,14,072,35,16,12,153,36,25,02,033,34*70
$GPRMC,181249.000,A,3544.9504,N,11914.6779,W,35.63,339.74,250119,,,A*41
$GPGGA,181250.000,3544.9598,N,11914.6823,W,1,11,0.9,85.7,M,-29.3,M,,0000*5F
$GPGLL,3544.9598,N,11914.6823,W,181250.000,A,A*4C
$GPGSA,A,3,26,18,11,32,14,22,31,16,03,01,23,,1.8,0.9,1.6*3A
$GPRMC,181250.000,A,3544.9598,N,11914.6823,W,36.59,340.17,250119,,,A*4D
$GPGGA,181251.000,3544.9695,N,11914.6868,W,1,11,0.9,86.3,M,-29.3,M,,0000*58
$GPGLL,3544.9695,N,11914.6868,W,181251.000,A,A*4C
$GPGSA,A,3,26,18,11,32,14,22,31,16,03,01,23,,1.8,0.9,1.6*3A
$GPRMC,181251.000,A,3544.9695,N,11914.6868,W,37.60,340.00,250119,,,A*40
$GPGGA,181252.000,3544.9795,N,11914.6914,W,1,11,0.9,86.8,M,-29.3,M,,0000*5B
$GPGLL,3544.9795,N,11914.6914,W,181252.000,A,A*44
$GPGSA,A,3,26,18,11,32,14,22,31,16,03,01,23,,1.8,0.9,1.6*3A
$GPRMC,181252.000,A,3544.9795,N,11914.6914,W,38.65,339.69,250119,,,A*43
$GPGGA,181253.000,3544.9897,N,11914.6961,W,1,11,0.9,87.3,M,-29.3,M,,0000*5F
$GPGLL,3544.9897,N,11914.6961,W,181253.000,A,A*4A
$GPGSA,A,3,26,18,11,32,14,22,31,16,03,01,23,,1.8,0.9,1.6*3A
$GPRMC,181253.000,A,3544.9897,N,11914.6961,W,39.69,339.34,250119,,,A*48
$GPGGA,181254.000,3545.0003,N,11914.7011,W,1,11,0.9,87.5,M,-29.3,M,,0000*5C
$GPGLL,3545.0003,N,11914.7011,W,181254.000,A,A*4F
$GPGSA,A,3,26,18,11,32,14,22,31,16,03,01,23,,1.8,0.9,1.6*3A
$GPGSV,3,1,12,22,79,317,40,03,55,319,41,31,55,051,40,01,44,235,40*79
$GPGSV,3,2,12,14,30,061,29,23,29,280,42,18,28,201,35,26,28,128,36*71
$GPGSV,3,3,12,11,17,224,38,32,14,072,36,16,12,153,36,25,02,033,27*71
$GPRMC,181254.000,A,3545.0003,N,11914.7011,W,40.73,339.33,250119,,,A*4F
$GPGGA,181255.000,3545.0111,N,11914.7060,W,1,11,0.9,87.8,M,-29.3,M,,0000*54
$GPGLL,3545.0111,N,11914.7060,W,181255.000,A,A*4A
$GPGSA,A,3,26,18,11,32,14,22,31,16,03,01,23,,1.8,0.9,1.6*3A
$GPRMC,181255.000,A,3545.0111,N,11914.7060,W,41.73,339.72,250119,,,A*4E
$GPGGA,181256.000,3545.0222,N,11914.7111,W,1,11,0.9,88.0,M,-29.3,M,,0000*54
$GPGLL,3545.0222,N,11914.7111,W,181256.000,A,A*4D
$GPGSA,A,3,26,18,11,32,14,22,31,16,03,01,23,,1.8,0.9,1.6*3A
$GPRMC,181256.000,A,3545.0222,N,11914.7111,W,42.73,340.04,250119,,,A*45
$GPGGA,181257.000,3545.0335,N,11914.7162,W,1,11,0.9,88.3,M,-29.3,M,,0000*55
$GPGLL,3545.0335,N,11914.7162,W,181257.000,A,A*4F
$GPGSA,A,3,26,18,11,32,14,22,31,16,03,01,23,,1.8,0.9,1.6*3A
$GPRMC,181257.000,A,3545.0335,N,11914.7162,W,43.65,340.08,250119,,,A*4D
$GPGGA,181258.000,3545.0451,N,11914.7213,W,1,11,0.9,88.6,M,-29.3,M,,0000*5F
$GPGLL,3545.0451,N,11914.7213,W,181258.000,A,A*40
$GPGSA,A,3,26,18,11,32,14,22,31,16,03,01,23,,1.8,0.9,1.6*3A
$GPRMC,181258.000,A,3545.0451,N,11914.7213,W,44.60,340.37,250119,,,A*4C
$GPGGA,181259.000,3545.0570,N,11914.7265,W,1,11,0.9,89.0,M,-29.3,M,,0000*5A
$GPGLL,3545.0570,N,11914.7265,W,181259.000,A,A*42
$GPGSA,A,3,26,18,11,32,14,22,31,16,03,01,23,,1.8,0.9,1.6*3A
$GPGSV,3,1,12,22,79,317,41,03,55,319,41,31,55,051,40,01,44,235,35*7A
$GPGSV,3,2,12,14,30,061,30,23,29,280,42,18,28,201,36,26,28,128,36*7A
$GPGSV,3,3,12,11,17,224,38,32,14,072,34,16,12,153,36,25,02,033,34*71
$GPRMC,181259.000,A,3545.0570,N,11914.7265,W,45.58,340.55,250119,,,A*40
$GPGGA,181300.000,3545.0691,N,11914.7319,W,1,11,0.9,89.3,M,-29.3,M,,0000*52
$GPGLL,3545.0691,N,11914.7319,W,181300.000,A,A*49
$GPGSA,A,3,26,18,11,32,14,22,31,16,03,01,23,,1.8,0.9,1.6*3A
$GPRMC,181300.000,A,3545.0691,N,11914.7319,W,46.41,340.44,250119,,,A*40
$GPGGA,181301.000,3545.0814,N,11914.7373,W,1,11,0.9,89.7,M,-29.3,M,,0000*58
$GPGLL,3545.0814,N,11914.7373,W,181301.000,A,A*47
$GPGSA,A,3,26,18,11,32,14,22,31,16,03,01,23,,1.8,0.9,1.6*3A
